[
    {
        "編號": "1",
        "屬性": "私立",
        "機構名稱": "財團法人彰化縣私立慈恩老人養護中心",
        "負責人": "謝明月",
        "區域別": "二林鎮",
        "地址": "彰化縣二林鎮華崙里光復路61巷20號",
        "電話": "04-8681199",
        "收容對象": "長照",
        "核定收容人數": "55",
        "立案日期": "91.2",
        "Latitude": "23.9511341",
        "Longitude": "120.443548"
    },
    {
        "編號": "1",
        "屬性": "私立",
        "機構名稱": "財團法人彰化縣私立慈恩老人養護中心",
        "負責人": "謝明月",
        "區域別": "二林鎮",
        "地址": "彰化縣二林鎮華崙里光復路61巷20號",
        "電話": "04-8681199",
        "收容對象": "養護",
        "核定收容人數": "143",
        "立案日期": "91.2",
        "Latitude": "23.9511341",
        "Longitude": "120.443548"
    },
    {
        "編號": "2",
        "屬性": "私立",
        "機構名稱": "彰化縣私立北斗老人養護中心",
        "負責人": "鐘錫地",
        "區域別": "北斗鎮",
        "地址": "彰化縣北斗鎮東光里地政路17號",
        "電話": "04-8877631",
        "收容對象": "養護",
        "核定收容人數": "48(含插2管23床)",
        "立案日期": "88.6",
        "Latitude": "23.874239",
        "Longitude": "120.5358704"
    },
    {
        "編號": "3",
        "屬性": "私立",
        "機構名稱": "財團法人彰化縣私立葳群公益慈善事業基金會附設彰化縣私立葳群老人長期照顧中心(養護型)",
        "負責人": "林亮暉",
        "區域別": "永靖鄉",
        "地址": "彰化縣永靖鄉福興村永福路二段218號",
        "電話": "04-8246888",
        "收容對象": "長照",
        "核定收容人數": "30",
        "立案日期": "100.11",
        "Latitude": "23.9187116",
        "Longitude": "120.5213486"
    },
    {
        "編號": "3",
        "屬性": "私立",
        "機構名稱": "財團法人彰化縣私立葳群公益慈善事業基金會附設彰化縣私立葳群老人長期照顧中心(養護型)",
        "負責人": "林亮暉",
        "區域別": "永靖鄉",
        "地址": "彰化縣永靖鄉福興村永福路二段218號",
        "電話": "04-8246888",
        "收容對象": "養護",
        "核定收容人數": "156",
        "立案日期": "100.11",
        "Latitude": "23.9187116",
        "Longitude": "120.5213486"
    },
    {
        "編號": "4",
        "屬性": "公立",
        "機構名稱": "衛生福利部中區老人之家",
        "負責人": "陳彥丞",
        "區域別": "田中鎮",
        "地址": "彰化縣田中鎮碧峰里中南路2段210號",
        "電話": "04-8742811",
        "收容對象": "安養",
        "核定收容人數": "175",
        "立案日期": "63.7",
        "Latitude": "23.8560141",
        "Longitude": "120.6160617"
    },
    {
        "編號": "4",
        "屬性": "公立",
        "機構名稱": "衛生福利部中區老人之家",
        "負責人": "陳彥丞",
        "區域別": "田中鎮",
        "地址": "彰化縣田中鎮碧峰里中南路2段210號",
        "電話": "04-8742811",
        "收容對象": "養護",
        "核定收容人數": "150",
        "立案日期": "63.7",
        "Latitude": "23.8560141",
        "Longitude": "120.6160617"
    },
    {
        "編號": "4",
        "屬性": "公立",
        "機構名稱": "衛生福利部中區老人之家",
        "負責人": "陳彥丞",
        "區域別": "田中鎮",
        "地址": "彰化縣田中鎮碧峰里中南路2段210號",
        "電話": "04-8742811",
        "收容對象": "長照",
        "核定收容人數": "15",
        "立案日期": "63.7",
        "Latitude": "23.8560141",
        "Longitude": "120.6160617"
    },
    {
        "編號": "4",
        "屬性": "公立",
        "機構名稱": "衛生福利部中區老人之家",
        "負責人": "陳彥丞",
        "區域別": "田中鎮",
        "地址": "彰化縣田中鎮碧峰里中南路2段210號",
        "電話": "04-8742811",
        "收容對象": "遊民",
        "核定收容人數": "50",
        "立案日期": "63.7",
        "Latitude": "23.8560141",
        "Longitude": "120.6160617"
    },
    {
        "編號": "5",
        "屬性": "私立",
        "機構名稱": "彰化縣私立田尾老人養護中心",
        "負責人": "劉素珍",
        "區域別": "田尾鄉",
        "地址": "彰化縣田尾鄉睦宜村聖德巷261號",
        "電話": "04-8831262",
        "收容對象": "養護",
        "核定收容人數": "40(含插2管19床)",
        "立案日期": "91.2",
        "Latitude": "23.884028",
        "Longitude": "120.549689"
    },
    {
        "編號": "6",
        "屬性": "私立",
        "機構名稱": "彰化縣私立明昇老人養護中心",
        "負責人": "詹鋕平",
        "區域別": "田尾鄉",
        "地址": "彰化縣田尾鄉睦宜村睦宜路22號",
        "電話": "04-8837395",
        "收容對象": "長照",
        "核定收容人數": "10",
        "立案日期": "96.1",
        "Latitude": "23.8787434",
        "Longitude": "120.549251"
    },
    {
        "編號": "6",
        "屬性": "私立",
        "機構名稱": "彰化縣私立明昇老人養護中心",
        "負責人": "詹鋕平",
        "區域別": "田尾鄉",
        "地址": "彰化縣田尾鄉睦宜村睦宜路22號",
        "電話": "04-8837395",
        "收容對象": "養護",
        "核定收容人數": "39",
        "立案日期": "96.1",
        "Latitude": "23.8787434",
        "Longitude": "120.549251"
    },
    {
        "編號": "7",
        "屬性": "私立",
        "機構名稱": "彰化縣私立博愛老人養護中心",
        "負責人": "薛勝銓",
        "區域別": "田尾鄉",
        "地址": "彰化縣田尾鄉南鎮村平和路1段73號",
        "電話": "04-8238338",
        "收容對象": "養護",
        "核定收容人數": "41",
        "立案日期": "96.3",
        "Latitude": "23.8894583",
        "Longitude": "120.5581096"
    },
    {
        "編號": "8",
        "屬性": "私立",
        "機構名稱": "彰化縣私立主光老人養護中心",
        "負責人": "楊靜薰",
        "區域別": "伸港鄉",
        "地址": "彰化縣田尾鄉南鎮村平和路1段73號",
        "電話": "04-7980892",
        "收容對象": "長照",
        "核定收容人數": "24",
        "立案日期": "96.11",
        "Latitude": "23.8894583",
        "Longitude": "120.5581096"
    },
    {
        "編號": "8",
        "屬性": "私立",
        "機構名稱": "彰化縣私立主光老人養護中心",
        "負責人": "楊靜薰",
        "區域別": "伸港鄉",
        "地址": "彰化縣田尾鄉南鎮村平和路1段73號",
        "電話": "04-7980892",
        "收容對象": "長照",
        "核定收容人數": "24",
        "立案日期": "96.11",
        "Latitude": "23.8894583",
        "Longitude": "120.5581096"
    },
    {
        "編號": "8",
        "屬性": "私立",
        "機構名稱": "彰化縣私立主光老人養護中心",
        "負責人": "楊靜薰",
        "區域別": "伸港鄉",
        "地址": "彰化縣田尾鄉南鎮村平和路1段73號",
        "電話": "04-7980892",
        "收容對象": "養護",
        "核定收容人數": "24",
        "立案日期": "96.11",
        "Latitude": "23.8894583",
        "Longitude": "120.5581096"
    },
    {
        "編號": "9",
        "屬性": "私立",
        "機構名稱": "彰化縣私立寶贊老人養護中心",
        "負責人": "郭鎮村",
        "區域別": "秀水鄉",
        "地址": "彰化縣秀水鄉福安村民意街165巷19號",
        "電話": "04-7680316",
        "收容對象": "養護",
        "核定收容人數": "29",
        "立案日期": "89.2",
        "Latitude": "24.0312341",
        "Longitude": "120.4939492"
    },
    {
        "編號": "10",
        "屬性": "私立",
        "機構名稱": "彰化縣私立賜福老人長期照顧中心(養護型)",
        "負責人": "李婉蕊",
        "區域別": "秀水鄉",
        "地址": "彰化縣秀水鄉陜西村水尾巷2號",
        "電話": "04-7686830",
        "收容對象": "養護",
        "核定收容人數": "30",
        "立案日期": "97.4",
        "Latitude": "24.0014488",
        "Longitude": "120.5236466"
    },
    {
        "編號": "10",
        "屬性": "私立",
        "機構名稱": "彰化縣私立賜福老人長期照顧中心(養護型)",
        "負責人": "李婉蕊",
        "區域別": "秀水鄉",
        "地址": "彰化縣秀水鄉陜西村水尾巷2號",
        "電話": "04-7686830",
        "收容對象": "長照",
        "核定收容人數": "5",
        "立案日期": "97.4",
        "Latitude": "24.0014488",
        "Longitude": "120.5236466"
    },
    {
        "編號": "11",
        "屬性": "私立",
        "機構名稱": "彰化縣私立福澤老人長期照顧中心(長期照護型)",
        "負責人": "梁奕淼",
        "區域別": "秀水鄉",
        "地址": "彰化縣秀水鄉福安村民意街187巷40號",
        "電話": "04-7680007",
        "收容對象": "長照",
        "核定收容人數": "20",
        "立案日期": "101.09",
        "Latitude": "24.0311506",
        "Longitude": "120.4932692"
    },
    {
        "編號": "12",
        "屬性": "私立",
        "機構名稱": "彰化縣私立立安老人長期照顧中心(養護型)",
        "負責人": "陶玫伊",
        "區域別": "秀水鄉",
        "地址": "彰化縣秀水鄉鶴明村6鄰明山街70-2號",
        "電話": "04-7685493",
        "收容對象": "養護",
        "核定收容人數": "14",
        "立案日期": "103.06",
        "Latitude": "24.055956",
        "Longitude": "120.501603"
    },
    {
        "編號": "13",
        "屬性": "私立",
        "機構名稱": "彰化縣私立大眾老人養護中心",
        "負責人": "莊建賢",
        "區域別": "和美鎮",
        "地址": "彰化縣和美鎮源埤里德南路18號",
        "電話": "04-7626552",
        "收容對象": "長照",
        "核定收容人數": "12",
        "立案日期": "91.8",
        "Latitude": "24.0816109",
        "Longitude": "120.516133"
    },
    {
        "編號": "13",
        "屬性": "私立",
        "機構名稱": "彰化縣私立大眾老人養護中心",
        "負責人": "莊建賢",
        "區域別": "和美鎮",
        "地址": "彰化縣和美鎮源埤里德南路18號",
        "電話": "04-7626552",
        "收容對象": "養護",
        "核定收容人數": "13",
        "立案日期": "91.8",
        "Latitude": "24.0816109",
        "Longitude": "120.516133"
    },
    {
        "編號": "14",
        "屬性": "私立",
        "機構名稱": "彰化縣私立和慷老人養護中心",
        "負責人": "陳佑墀",
        "區域別": "和美鎮",
        "地址": "彰化縣和美鎮雅溝里鹿和路5段301巷25號",
        "電話": "04-7560007",
        "收容對象": "長照",
        "核定收容人數": "10",
        "立案日期": "94.9",
        "Latitude": "24.1006639",
        "Longitude": "120.490788"
    },
    {
        "編號": "14",
        "屬性": "私立",
        "機構名稱": "彰化縣私立和慷老人養護中心",
        "負責人": "陳佑墀",
        "區域別": "和美鎮",
        "地址": "彰化縣和美鎮雅溝里鹿和路5段301巷25號",
        "電話": "04-7560007",
        "收容對象": "養護",
        "核定收容人數": "24",
        "立案日期": "94.9",
        "Latitude": "24.1006639",
        "Longitude": "120.490788"
    },
    {
        "編號": "15",
        "屬性": "私立",
        "機構名稱": "彰化縣私立慈美老人長期照顧中心(長期照護型)",
        "負責人": "洪彩雲",
        "區域別": "和美鎮",
        "地址": "彰化縣和美鎮西美路183號",
        "電話": "04-7568497",
        "收容對象": "長照",
        "核定收容人數": "27",
        "立案日期": "101.6",
        "Latitude": "24.1220869",
        "Longitude": "120.4876698"
    },
    {
        "編號": "16",
        "屬性": "私立",
        "機構名稱": "彰化縣私立一尚安老人養護中心",
        "負責人": "龔榮茂",
        "區域別": "社頭鄉",
        "地址": "彰化縣社頭鄉社頭村中山路三段60巷288弄60號",
        "電話": "04-8736035",
        "收容對象": "長照",
        "核定收容人數": "8",
        "立案日期": "93.4",
        "Latitude": "23.9087144",
        "Longitude": "120.5826844"
    },
    {
        "編號": "16",
        "屬性": "私立",
        "機構名稱": "彰化縣私立一尚安老人養護中心",
        "負責人": "龔榮茂",
        "區域別": "社頭鄉",
        "地址": "彰化縣社頭鄉社頭村中山路三段60巷288弄60號",
        "電話": "04-8736035",
        "收容對象": "養護",
        "核定收容人數": "33",
        "立案日期": "93.4",
        "Latitude": "23.9087144",
        "Longitude": "120.5826844"
    },
    {
        "編號": "17",
        "屬性": "私立",
        "機構名稱": "財團法人彰化縣私立珍瑩老人養護中心",
        "負責人": "蕭珮瑄",
        "區域別": "社頭鄉",
        "地址": "彰化縣社頭鄉仁和村山腳路2段726巷23號",
        "電話": "04-8721297、04-8721298",
        "收容對象": "養護",
        "核定收容人數": "45",
        "立案日期": "83.6",
        "Latitude": "23.9119416",
        "Longitude": "120.609088"
    },
    {
        "編號": "18",
        "屬性": "私立",
        "機構名稱": "財團法人彰化縣私立愛如心老人養護中心",
        "負責人": "賴照發",
        "區域別": "芬園鄉",
        "地址": "彰化縣芬園鄉舊社村中興路376號",
        "電話": "049-2520986",
        "收容對象": "養護",
        "核定收容人數": "39",
        "立案日期": "91.1",
        "Latitude": "24.03217",
        "Longitude": "120.6066167"
    },
    {
        "編號": "18",
        "屬性": "私立",
        "機構名稱": "財團法人彰化縣私立愛如心老人養護中心",
        "負責人": "賴照發",
        "區域別": "芬園鄉",
        "地址": "彰化縣芬園鄉舊社村中興路376號",
        "電話": "049-2520986",
        "收容對象": "長照",
        "核定收容人數": "38",
        "立案日期": "91.1",
        "Latitude": "24.03217",
        "Longitude": "120.6066167"
    },
    {
        "編號": "19",
        "屬性": "私立",
        "機構名稱": "彰化縣私立芬園老人養護中心",
        "負責人": "呂來春",
        "區域別": "芬園鄉",
        "地址": "彰化縣芬園鄉大竹村大彰路1段458號",
        "電話": "04-8590760",
        "收容對象": "養護",
        "核定收容人數": "27",
        "立案日期": "96.1",
        "Latitude": "23.96035",
        "Longitude": "120.630094"
    },
    {
        "編號": "19",
        "屬性": "私立",
        "機構名稱": "彰化縣私立芬園老人養護中心",
        "負責人": "呂來春",
        "區域別": "芬園鄉",
        "地址": "彰化縣芬園鄉大竹村大彰路1段458號",
        "電話": "04-8590760",
        "收容對象": "長照",
        "核定收容人數": "9",
        "立案日期": "96.1",
        "Latitude": "23.96035",
        "Longitude": "120.630094"
    },
    {
        "編號": "20",
        "屬性": "私立",
        "機構名稱": "彰化縣私立馨園老人長期照護中心",
        "負責人": "李淑春",
        "區域別": "花壇鄉",
        "地址": "彰化縣花壇鄉白沙村溪北街17號",
        "電話": "04-7878847",
        "收容對象": "長照",
        "核定收容人數": "49",
        "立案日期": "92.1",
        "Latitude": "24.0433305",
        "Longitude": "120.5459849"
    },
    {
        "編號": "21",
        "屬性": "私立",
        "機構名稱": "財團法人彰化縣私立茉莉園社會福利慈善事業基金會附設彰化縣私立茉莉園老人長期照顧中心(長期照護型)",
        "負責人": "蔡進興",
        "區域別": "花壇鄉",
        "地址": "彰化縣花壇鄉北口村彰花路651巷37號",
        "電話": "04-7519088",
        "收容對象": "長照",
        "核定收容人數": "198",
        "立案日期": "97.6",
        "Latitude": "24.0459477",
        "Longitude": "120.5241387"
    },
    {
        "編號": "22",
        "屬性": "私立",
        "機構名稱": "彰化縣私立通堡老人長期照護中心(長期照護型)",
        "負責人": "張宗智",
        "區域別": "花壇鄉",
        "地址": "彰化縣花壇鄉中庄村中山路1段40巷88號",
        "電話": "04-7877538",
        "收容對象": "長照",
        "核定收容人數": "49",
        "立案日期": "97.1",
        "Latitude": "24.011796",
        "Longitude": "120.552173"
    },
    {
        "編號": "23",
        "屬性": "私立",
        "機構名稱": "彰化縣私立龍慶老人養護中心",
        "負責人": "郭月娥",
        "區域別": "花壇鄉",
        "地址": "彰化縣花壇鄉三春村後厝2巷41弄3號",
        "電話": "04-7878407",
        "收容對象": "養護",
        "核定收容人數": "48",
        "立案日期": "88.12",
        "Latitude": "24.0153871",
        "Longitude": "120.5692529"
    },
    {
        "編號": "24",
        "屬性": "私立",
        "機構名稱": "彰化縣私立聖仁老人長期照護中心(長期照護型)",
        "負責人": "薛裕仁",
        "區域別": "花壇鄉",
        "地址": "彰化縣花壇鄉三春村後厝1巷12弄36號",
        "電話": "04-7877779",
        "收容對象": "長照",
        "核定收容人數": "49",
        "立案日期": "96.12",
        "Latitude": "24.015588",
        "Longitude": "120.568542"
    },
    {
        "編號": "25",
        "屬性": "私立",
        "機構名稱": "彰化縣私立健民老人養護中心",
        "負責人": "賴春蓮",
        "區域別": "埤頭鄉",
        "地址": "彰化縣埤頭鄉溪林路177-1號",
        "電話": "04-8898382",
        "收容對象": "養護",
        "核定收容人數": "25",
        "立案日期": "89.05.02",
        "Latitude": "23.846762",
        "Longitude": "120.463932"
    },
    {
        "編號": "25",
        "屬性": "私立",
        "機構名稱": "彰化縣私立健民老人養護中心",
        "負責人": "賴春蓮",
        "區域別": "埤頭鄉",
        "地址": "彰化縣埤頭鄉溪林路177-1號",
        "電話": "04-8898382",
        "收容對象": "長照",
        "核定收容人數": "24",
        "立案日期": "89.05.02",
        "Latitude": "23.846762",
        "Longitude": "120.463932"
    },
    {
        "編號": "26",
        "屬性": "私立",
        "機構名稱": "彰化縣私立良安老人長期照護中心",
        "負責人": "周志威",
        "區域別": "員林鎮",
        "地址": "彰化縣員林鎮新生里新義街85號3樓",
        "電話": "04-8397555",
        "收容對象": "長照",
        "核定收容人數": "40",
        "立案日期": "95.2",
        "Latitude": "23.9574269",
        "Longitude": "120.5675144"
    },
    {
        "編號": "27",
        "屬性": "私立",
        "機構名稱": "彰化縣私立伍倫惠來老人養護中心",
        "負責人": "林右崇",
        "區域別": "員林鎮",
        "地址": "彰化縣員林鎮惠來里光明街77號",
        "電話": "04-8326161",
        "收容對象": "養護",
        "核定收容人數": "42",
        "立案日期": "89.6",
        "Latitude": "23.9533881",
        "Longitude": "120.573585"
    },
    {
        "編號": "28",
        "屬性": "私立",
        "機構名稱": "彰化縣私立惠親老人養護中心",
        "負責人": "張陳玉發",
        "區域別": "員林鎮",
        "地址": "彰化縣員林鎮崙雅里崙雅巷5-27號",
        "電話": "04-8310331",
        "收容對象": "長照",
        "核定收容人數": "20",
        "立案日期": "95.12",
        "Latitude": "23.9467316",
        "Longitude": "120.5958398"
    },
    {
        "編號": "28",
        "屬性": "私立",
        "機構名稱": "彰化縣私立惠親老人養護中心",
        "負責人": "張陳玉發",
        "區域別": "員林鎮",
        "地址": "彰化縣員林鎮崙雅里崙雅巷5-27號",
        "電話": "04-8310331",
        "收容對象": "養護",
        "核定收容人數": "29",
        "立案日期": "95.12",
        "Latitude": "23.9467316",
        "Longitude": "120.5958398"
    },
    {
        "編號": "29",
        "屬性": "私立",
        "機構名稱": "財團法人彰化縣私立廣成老人安養中心",
        "負責人": "蔡東龍",
        "區域別": "員林鎮",
        "地址": "彰化縣員林鎮振興里員水路1段102巷76號",
        "電話": "04-8337536",
        "收容對象": "安養",
        "核定收容人數": "56",
        "立案日期": "79.12",
        "Latitude": "23.9507762",
        "Longitude": "120.6029375"
    },
    {
        "編號": "29",
        "屬性": "私立",
        "機構名稱": "財團法人彰化縣私立廣成老人安養中心",
        "負責人": "蔡東龍",
        "區域別": "員林鎮",
        "地址": "彰化縣員林鎮振興里員水路1段102巷76號",
        "電話": "04-8337536",
        "收容對象": "養護",
        "核定收容人數": "45",
        "立案日期": "79.12",
        "Latitude": "23.9507762",
        "Longitude": "120.6029375"
    },
    {
        "編號": "30",
        "屬性": "私立",
        "機構名稱": "彰化縣私立大員林老人長期照顧中心(養護型)",
        "負責人": "吳憲政",
        "區域別": "員林鎮",
        "地址": "彰化縣員林鎮林厝里5鄰員南路360號",
        "電話": "04-8394888",
        "收容對象": "養護",
        "核定收容人數": "34",
        "立案日期": "103.04",
        "Latitude": "23.9392752",
        "Longitude": "120.6031935"
    },
    {
        "編號": "30",
        "屬性": "私立",
        "機構名稱": "彰化縣私立大員林老人長期照顧中心(養護型)",
        "負責人": "吳憲政",
        "區域別": "員林鎮",
        "地址": "彰化縣員林鎮林厝里5鄰員南路360號",
        "電話": "04-8394888",
        "收容對象": "長照",
        "核定收容人數": "15",
        "立案日期": "103.04",
        "Latitude": "23.9392752",
        "Longitude": "120.6031935"
    },
    {
        "編號": "31",
        "屬性": "私立",
        "機構名稱": "彰化縣私立友福老人長期照顧中心(養護型)",
        "負責人": "黃大堯",
        "區域別": "埔心鄉",
        "地址": "彰化縣埔心鄉羅厝村羅永路49-9號1樓",
        "電話": "04-8285720",
        "收容對象": "養護",
        "核定收容人數": "45",
        "立案日期": "98.5",
        "Latitude": "23.933419",
        "Longitude": "120.514664"
    },
    {
        "編號": "32",
        "屬性": "私立",
        "機構名稱": "彰化縣私立羅厝老人長期照顧中心(養護型)",
        "負責人": "黃大本",
        "區域別": "埔心鄉",
        "地址": "彰化縣埔心鄉羅厝村羅永路49-8號",
        "電話": "04-8285720",
        "收容對象": "養護",
        "核定收容人數": "33",
        "立案日期": "99.11",
        "Latitude": "23.933419",
        "Longitude": "120.514664"
    },
    {
        "編號": "32",
        "屬性": "私立",
        "機構名稱": "彰化縣私立羅厝老人長期照顧中心(養護型)",
        "負責人": "黃大本",
        "區域別": "埔心鄉",
        "地址": "彰化縣埔心鄉羅厝村羅永路49-8號",
        "電話": "04-8285720",
        "收容對象": "長照",
        "核定收容人數": "8",
        "立案日期": "99.11",
        "Latitude": "23.933419",
        "Longitude": "120.514664"
    },
    {
        "編號": "33",
        "屬性": "私立",
        "機構名稱": "彰化縣私立埔心老人養護中心",
        "負責人": "謝錦六",
        "區域別": "埔心鄉",
        "地址": "彰化縣埔心鄉舊館村興霖路577號",
        "電話": "04-8282932",
        "收容對象": "養護",
        "核定收容人數": "49(含插2管24床)",
        "立案日期": "89.5",
        "Latitude": "23.962649",
        "Longitude": "120.523077"
    },
    {
        "編號": "34",
        "屬性": "私立",
        "機構名稱": "彰化縣私立迦南老人長期照顧中心(養護型)",
        "負責人": "張詩麗",
        "區域別": "埔心鄉",
        "地址": "彰化縣埔心鄉南館村四湳路383巷30號",
        "電話": "04-8281278",
        "收容對象": "長照",
        "核定收容人數": "15",
        "立案日期": "101.3",
        "Latitude": "23.937117",
        "Longitude": "120.52091"
    },
    {
        "編號": "34",
        "屬性": "私立",
        "機構名稱": "彰化縣私立迦南老人長期照顧中心(養護型)",
        "負責人": "張詩麗",
        "區域別": "埔心鄉",
        "地址": "彰化縣埔心鄉南館村四湳路383巷30號",
        "電話": "04-8281278",
        "收容對象": "養護",
        "核定收容人數": "34",
        "立案日期": "101.3",
        "Latitude": "23.937117",
        "Longitude": "120.52091"
    },
    {
        "編號": "35",
        "屬性": "私立",
        "機構名稱": "彰化縣私立好修老人長期照顧中心(養護護型)",
        "負責人": "劉王玉英",
        "區域別": "埔鹽鄉",
        "地址": "彰化縣埔鹽鄉好修村3鄰員鹿路二段170",
        "電話": "04-8654888",
        "收容對象": "養護",
        "核定收容人數": "49",
        "立案日期": "103.02",
        "Latitude": "24.0076989",
        "Longitude": "120.4597257"
    },
    {
        "編號": "36",
        "屬性": "私立",
        "機構名稱": "彰化縣私立和煬老人長期照顧中心(養護型)",
        "負責人": "謝志能",
        "區域別": "埤頭鄉",
        "地址": "彰化縣埤頭鄉芙朝村東環路二段320巷36號",
        "電話": "04-8921878",
        "收容對象": "養護",
        "核定收容人數": "48",
        "立案日期": "101.1",
        "Latitude": "23.8733818",
        "Longitude": "120.4671347"
    },
    {
        "編號": "37",
        "屬性": "私立",
        "機構名稱": "彰化縣私立松柏老人長期照護中心",
        "負責人": "金紹文",
        "區域別": "溪州鄉",
        "地址": "彰化縣溪州鄉榮光村政民路287巷51弄5號",
        "電話": "04-8795090",
        "收容對象": "長照",
        "核定收容人數": "48",
        "立案日期": "96.9",
        "Latitude": "23.8203292",
        "Longitude": "120.5756194"
    },
    {
        "編號": "38",
        "屬性": "私立",
        "機構名稱": "彰化縣私立新溪湖老人長期照顧中心(養護型)",
        "負責人": "黃淑媛",
        "區域別": "溪湖鎮",
        "地址": "彰化縣溪湖鎮媽厝里湳底路89之38號",
        "電話": "04-8821991",
        "收容對象": "養護",
        "核定收容人數": "31",
        "立案日期": "99.8",
        "Latitude": "23.935782",
        "Longitude": "120.488363"
    },
    {
        "編號": "38",
        "屬性": "私立",
        "機構名稱": "彰化縣私立新溪湖老人長期照顧中心(養護型)",
        "負責人": "黃淑媛",
        "區域別": "溪湖鎮",
        "地址": "彰化縣溪湖鎮媽厝里湳底路89之38號",
        "電話": "04-8821991",
        "收容對象": "長照",
        "核定收容人數": "12",
        "立案日期": "99.8",
        "Latitude": "23.935782",
        "Longitude": "120.488363"
    },
    {
        "編號": "39",
        "屬性": "私立",
        "機構名稱": "彰化縣私立聖榕園老人長期照顧中心(養護型)",
        "負責人": "莊清?",
        "區域別": "溪湖鎮",
        "地址": "彰化縣溪湖鎮東溪里榕樹路130號",
        "電話": "04-8822022",
        "收容對象": "養護",
        "核定收容人數": "41",
        "立案日期": "97.6",
        "Latitude": "23.9602291",
        "Longitude": "120.5109191"
    },
    {
        "編號": "39",
        "屬性": "私立",
        "機構名稱": "彰化縣私立聖榕園老人長期照顧中心(養護型)",
        "負責人": "莊清?",
        "區域別": "溪湖鎮",
        "地址": "彰化縣溪湖鎮東溪里榕樹路130號",
        "電話": "04-8822022",
        "收容對象": "長照",
        "核定收容人數": "3",
        "立案日期": "97.6",
        "Latitude": "23.9602291",
        "Longitude": "120.5109191"
    },
    {
        "編號": "40",
        "屬性": "公立",
        "機構名稱": "衛生福利部彰化老人養護中心",
        "負責人": "譚志皓",
        "區域別": "彰化市",
        "地址": "彰化縣彰化市桃源里虎崗路1號",
        "電話": "04-7258131",
        "收容對象": "養護",
        "核定收容人數": "204",
        "立案日期": "78.7",
        "Latitude": "24.0576063",
        "Longitude": "120.5722514"
    },
    {
        "編號": "40",
        "屬性": "公立",
        "機構名稱": "衛生福利部彰化老人養護中心",
        "負責人": "譚志皓",
        "區域別": "彰化市",
        "地址": "彰化縣彰化市桃源里虎崗路1號",
        "電話": "04-7258131",
        "收容對象": "長照",
        "核定收容人數": "96",
        "立案日期": "78.7",
        "Latitude": "24.0576063",
        "Longitude": "120.5722514"
    },
    {
        "編號": "40",
        "屬性": "公立",
        "機構名稱": "衛生福利部彰化老人養護中心",
        "負責人": "譚志皓",
        "區域別": "彰化市",
        "地址": "彰化縣彰化市桃源里虎崗路1號",
        "電話": "04-7258131",
        "收容對象": "失智",
        "核定收容人數": "60",
        "立案日期": "78.7",
        "Latitude": "24.0576063",
        "Longitude": "120.5722514"
    },
    {
        "編號": "41",
        "屬性": "私立",
        "機構名稱": "彰化縣私立鈺燕老人養護中心",
        "負責人": "王燕珠",
        "區域別": "彰化市",
        "地址": "彰化縣彰化市阿夷里金馬路1段595號2-3樓",
        "電話": "04-7276552",
        "收容對象": "養護",
        "核定收容人數": "22",
        "立案日期": "91.8",
        "Latitude": "24.0972569",
        "Longitude": "120.551336"
    },
    {
        "編號": "42",
        "屬性": "私立",
        "機構名稱": "彰化縣私立新仁愛老人養護中心",
        "負責人": "薛裕仁",
        "區域別": "彰化市",
        "地址": "彰化縣彰化市延平里延平路475巷9號1樓.2樓",
        "電話": "04-7119597",
        "收容對象": "養護",
        "核定收容人數": "10",
        "立案日期": "91.6",
        "Latitude": "24.0622449",
        "Longitude": "120.540386"
    },
    {
        "編號": "43",
        "屬性": "私立",
        "機構名稱": "彰化縣私立崇愛老人長期照護中心",
        "負責人": "陳佩君",
        "區域別": "彰化市",
        "地址": "彰化縣彰化市和平里金馬路3段912號2至5樓",
        "電話": "04-7626956、04-7626957",
        "收容對象": "長照",
        "核定收容人數": "49",
        "立案日期": "90.8",
        "Latitude": "24.073635",
        "Longitude": "120.5311911"
    },
    {
        "編號": "44",
        "屬性": "私立",
        "機構名稱": "彰化縣私立彰居老人長期照顧中心(長期照護型)",
        "負責人": "李勝勛",
        "區域別": "彰化市",
        "地址": "彰化縣彰化市成功里民族路178-1號",
        "電話": "04-7286828",
        "收容對象": "長照",
        "核定收容人數": "29",
        "立案日期": "98.5",
        "Latitude": "24.070159",
        "Longitude": "120.539161"
    },
    {
        "編號": "45",
        "屬性": "私立",
        "機構名稱": "彰化縣私立吉祥老人養護中心",
        "負責人": "陳國棟",
        "區域別": "彰化市",
        "地址": "彰化縣彰化市永福里光復路25號2-4樓",
        "電話": "04-7299727",
        "收容對象": "養護",
        "核定收容人數": "49(含插2管24床)",
        "立案日期": "89.6",
        "Latitude": "24.0808262",
        "Longitude": "120.5452834"
    },
    {
        "編號": "46",
        "屬性": "私立",
        "機構名稱": "彰化縣私立寶祥老人長期照護中心",
        "負責人": "陳國棟",
        "區域別": "彰化市",
        "地址": "彰化縣彰化市永福里中山路2段605號3樓-2.-3",
        "電話": "04-7290005",
        "收容對象": "長照",
        "核定收容人數": "22",
        "立案日期": "93.3",
        "Latitude": "24.066674",
        "Longitude": "120.538689"
    },
    {
        "編號": "47",
        "屬性": "私立",
        "機構名稱": "彰化縣私立群燕老人養護中心",
        "負責人": "王燕珠",
        "區域別": "彰化市",
        "地址": "彰化縣彰化市平和里林森路157號",
        "電話": "04-7610988",
        "收容對象": "養護",
        "核定收容人數": "28",
        "立案日期": "95.8",
        "Latitude": "24.0726776",
        "Longitude": "120.5260034"
    },
    {
        "編號": "47",
        "屬性": "私立",
        "機構名稱": "彰化縣私立群燕老人養護中心",
        "負責人": "王燕珠",
        "區域別": "彰化市",
        "地址": "彰化縣彰化市平和里林森路157號",
        "電話": "04-7610988",
        "收容對象": "長照",
        "核定收容人數": "7",
        "立案日期": "95.8",
        "Latitude": "24.0726776",
        "Longitude": "120.5260034"
    },
    {
        "編號": "48",
        "屬性": "私立",
        "機構名稱": "彰化縣私立全祥老人養護中心",
        "負責人": "鄭玉珠",
        "區域別": "彰化市",
        "地址": "彰化縣彰化市台鳳里互助一街5巷95號1樓",
        "電話": "04-7371619",
        "收容對象": "養護",
        "核定收容人數": "6",
        "立案日期": "91.11",
        "Latitude": "24.073238",
        "Longitude": "120.602658"
    },
    {
        "編號": "48",
        "屬性": "私立",
        "機構名稱": "彰化縣私立全祥老人養護中心",
        "負責人": "鄭玉珠",
        "區域別": "彰化市",
        "地址": "彰化縣彰化市台鳳里互助一街5巷95號1樓",
        "電話": "04-7371619",
        "收容對象": "長照",
        "核定收容人數": "4",
        "立案日期": "91.11",
        "Latitude": "24.073238",
        "Longitude": "120.602658"
    },
    {
        "編號": "49",
        "屬性": "私立",
        "機構名稱": "財團法人臺灣省私立台中仁愛之家附設彰化縣私立慈惠老人養護中心",
        "負責人": "蔡慶欣",
        "區域別": "彰化市",
        "地址": "彰化縣彰化市中正里中民街100號",
        "電話": "04-776668",
        "收容對象": "長照",
        "核定收容人數": "30",
        "立案日期": "95.3",
        "Latitude": "24.0833695",
        "Longitude": "120.5471049"
    },
    {
        "編號": "49",
        "屬性": "私立",
        "機構名稱": "財團法人臺灣省私立台中仁愛之家附設彰化縣私立慈惠老人養護中心",
        "負責人": "蔡慶欣",
        "區域別": "彰化市",
        "地址": "彰化縣彰化市中正里中民街100號",
        "電話": "04-776668",
        "收容對象": "養護",
        "核定收容人數": "182",
        "立案日期": "95.3",
        "Latitude": "24.0833695",
        "Longitude": "120.5471049"
    },
    {
        "編號": "50",
        "屬性": "私立",
        "機構名稱": "彰化縣私立和德老人長期照顧中心(養護型)",
        "負責人": "黃朝吉",
        "區域別": "彰化市",
        "地址": "彰化縣彰化市東芳里永芳路58號",
        "電話": "04-7638508",
        "收容對象": "長照",
        "核定收容人數": "9",
        "立案日期": "102.12",
        "Latitude": "24.0641795",
        "Longitude": "120.5191214"
    },
    {
        "編號": "50",
        "屬性": "私立",
        "機構名稱": "彰化縣私立和德老人長期照顧中心(養護型)",
        "負責人": "黃朝吉",
        "區域別": "彰化市",
        "地址": "彰化縣彰化市東芳里永芳路58號",
        "電話": "04-7638508",
        "收容對象": "養護",
        "核定收容人數": "40",
        "立案日期": "102.12",
        "Latitude": "24.0641795",
        "Longitude": "120.5191214"
    },
    {
        "編號": "51",
        "屬性": "私立",
        "機構名稱": "彰化縣私立文祥老人長期照顧中心(養護型)",
        "負責人": "吳炳源",
        "區域別": "福興鄉",
        "地址": "彰化縣福興鄉秀厝村秀安二街112巷77號",
        "電話": "04-7781015",
        "收容對象": "養護",
        "核定收容人數": "48",
        "立案日期": "103.12",
        "Latitude": "24.0339443",
        "Longitude": "120.4300771"
    },
    {
        "編號": "52",
        "屬性": "私立",
        "機構名稱": "彰化縣私立文開老人長期照顧中心",
        "負責人": "施壹程",
        "區域別": "福興鄉",
        "地址": "彰化縣福興鄉秀厝村秀安二街112巷75號",
        "電話": "04-7781015",
        "收容對象": "長照",
        "核定收容人數": "30",
        "立案日期": "105.8.18",
        "Latitude": "24.0339063",
        "Longitude": "120.4300708"
    },
    {
        "編號": "53",
        "屬性": "私立",
        "機構名稱": "彰化縣私立澄欣老人長期照顧中心",
        "負責人": "陳佳秀",
        "區域別": "芳苑鄉",
        "地址": "彰化縣芳苑鄉漢寶村漢崙路77巷8號",
        "電話": "04-8991047",
        "收容對象": "養護",
        "核定收容人數": "49",
        "立案日期": "105.8.18",
        "Latitude": "23.9960941",
        "Longitude": "120.3720175"
    }
]