[
    {
        "編號": "1",
        "屬性": "私立",
        "機構名稱": "新竹縣私立弘欣老人長期照顧中心(養護型)",
        "負責人": "黃吉寶",
        "區域別": "竹北",
        "地址": "30282新竹縣竹北市鳳岡路2段295號",
        "電話": "03-5562159",
        "收容對象": "養護",
        "核定收容人數": "49",
        "立案日期": "91.06",
        "Latitude": "24.8596188",
        "Longitude": "120.9759645"
    },
    {
        "編號": "2",
        "屬性": "公設民營",
        "機構名稱": "財團法人台灣省天主教會新竹教區辦理竹北市老人安養中心",
        "負責人": "李克勉",
        "區域別": "竹北",
        "地址": "30264新竹縣竹北市福興東路一段353號",
        "電話": "03-5500797",
        "收容對象": "安養",
        "核定收容人數": "25",
        "立案日期": "91.06",
        "Latitude": "24.8176736",
        "Longitude": "121.0256611"
    },
    {
        "編號": "2",
        "屬性": "公設民營",
        "機構名稱": "財團法人台灣省天主教會新竹教區辦理竹北市老人安養中心",
        "負責人": "李克勉",
        "區域別": "竹北",
        "地址": "30264新竹縣竹北市福興東路一段353號",
        "電話": "03-5500797",
        "收容對象": "養護",
        "核定收容人數": "24",
        "立案日期": "91.06",
        "Latitude": "24.8176736",
        "Longitude": "121.0256611"
    },
    {
        "編號": "3",
        "屬性": "私立",
        "機構名稱": "新竹縣私立建安長期照顧中心(養護型)",
        "負責人": "謝煒峰",
        "區域別": "竹北",
        "地址": "30259新竹縣竹北市博愛街298巷9號",
        "電話": "03-5537221",
        "收容對象": "養護",
        "核定收容人數": "49",
        "立案日期": "96.11.19",
        "Latitude": "24.8346906",
        "Longitude": "121.0079704"
    },
    {
        "編號": "4",
        "屬性": "私立",
        "機構名稱": "新竹縣私立馨緣老人長期照顧中心(養護型)",
        "負責人": "?進源",
        "區域別": "竹北",
        "地址": "30265新竹縣竹北市聯興里9鄰環北路三段216號",
        "電話": "03-5533850",
        "收容對象": "養護",
        "核定收容人數": "49(安養25床；養護24床)",
        "立案日期": "105.12.08",
        "Latitude": "24.8494008",
        "Longitude": "120.9971235"
    },
    {
        "編號": "5",
        "屬性": "私立",
        "機構名稱": "新竹縣私立立慈養護中心",
        "負責人": "盧國郎",
        "區域別": "新豐",
        "地址": "30445新竹縣新豐鄉鳳坑村8鄰720之2號",
        "電話": "03-5571694",
        "收容對象": "養護",
        "核定收容人數": "49",
        "立案日期": "91.06",
        "Latitude": "24.8971731",
        "Longitude": "120.9698354"
    },
    {
        "編號": "6",
        "屬性": "私立",
        "機構名稱": "新竹縣私立廣慈長期照顧中心(養護型)",
        "負責人": "孫桂珠",
        "區域別": "新豐",
        "地址": "30445新竹縣新豐鄉鳳坑村8鄰720之3號",
        "電話": "03-5577407",
        "收容對象": "養護",
        "核定收容人數": "49",
        "立案日期": "97.10.09",
        "Latitude": "24.8971731",
        "Longitude": "120.9698354"
    },
    {
        "編號": "7",
        "屬性": "私立",
        "機構名稱": "新竹縣私立康福長期照顧中心(養護型)",
        "負責人": "彭柏硯",
        "區域別": "新豐",
        "地址": "30447新竹縣新豐鄉後湖村11鄰十一股12之1號",
        "電話": "03-5688925",
        "收容對象": "養護",
        "核定收容人數": "49",
        "立案日期": "101.10.2",
        "Latitude": "24.926499",
        "Longitude": "121.025691"
    },
    {
        "編號": "8",
        "屬性": "私立",
        "機構名稱": "財團法人台灣省天主教會新竹教區附設新竹縣私立長安老人養護中心",
        "負責人": "李克勉",
        "區域別": "竹東",
        "地址": "31044新竹縣竹東鎮長安路130號",
        "電話": "03-5943987",
        "收容對象": "養護",
        "核定收容人數": "150",
        "立案日期": "83.05.27",
        "Latitude": "24.7359744",
        "Longitude": "121.0910285"
    },
    {
        "編號": "9",
        "屬性": "私立",
        "機構名稱": "新竹縣私立慈恩養護中心",
        "負責人": "林明光",
        "區域別": "竹東",
        "地址": "31051新竹縣竹東鎮東峰路340號",
        "電話": "03-5946566",
        "收容對象": "養護",
        "核定收容人數": "37",
        "立案日期": "91.06",
        "Latitude": "24.7118886",
        "Longitude": "121.0980665"
    },
    {
        "編號": "10",
        "屬性": "私立",
        "機構名稱": "新竹縣私立萱苑養護中心",
        "負責人": "林俊豪",
        "區域別": "關西",
        "地址": "30642新竹縣關西鎮北斗里11鄰光復路160號",
        "電話": "03-5870018",
        "收容對象": "養護",
        "核定收容人數": "45",
        "立案日期": "91.06",
        "Latitude": "24.79625",
        "Longitude": "121.1758341"
    },
    {
        "編號": "11",
        "屬性": "私立",
        "機構名稱": "新竹縣私立瑪琍亞養護中心",
        "負責人": "劉瑞美",
        "區域別": "芎林",
        "地址": "30746新竹縣芎林鄉秀湖村富林路一段399巷21號",
        "電話": "03-5937055",
        "收容對象": "養護",
        "核定收容人數": "32",
        "立案日期": "92.02",
        "Latitude": "24.7356766",
        "Longitude": "121.1183474"
    },
    {
        "編號": "12",
        "屬性": "私立",
        "機構名稱": "財團法人新竹縣私立保順養護中心",
        "負責人": "呂榮初",
        "區域別": "芎林",
        "地址": "307新竹縣芎林鄉福昌街148號",
        "電話": "03-5922299",
        "收容對象": "養護",
        "核定收容人數": "189",
        "立案日期": "93.9.24",
        "Latitude": "24.74711",
        "Longitude": "121.102154"
    },
    {
        "編號": "12",
        "屬性": "私立",
        "機構名稱": "財團法人新竹縣私立保順養護中心",
        "負責人": "呂榮初",
        "區域別": "芎林",
        "地址": "307新竹縣芎林鄉福昌街148號",
        "電話": "03-5922299",
        "收容對象": "失智",
        "核定收容人數": "11",
        "立案日期": "93.9.24",
        "Latitude": "24.74711",
        "Longitude": "121.102154"
    },
    {
        "編號": "13",
        "屬性": "私立",
        "機構名稱": "新竹縣私立長春長期照顧中心",
        "負責人": "鄭玉蓮",
        "區域別": "湖口",
        "地址": "30342新竹縣湖口鄉達生路326號",
        "電話": "03-5996854",
        "收容對象": "養護",
        "核定收容人數": "49",
        "立案日期": "102.12.31",
        "Latitude": "24.9013828",
        "Longitude": "121.0499937"
    },
    {
        "編號": "14",
        "屬性": "私立",
        "機構名稱": "新竹縣私立勝光長期照顧中心(養護型)",
        "負責人": "田清玲",
        "區域別": "湖口",
        "地址": "30372新竹縣湖口鄉湖鏡村八德路二段10號",
        "電話": "03-5692978",
        "收容對象": "養護",
        "核定收容人數": "45",
        "立案日期": "97.11.10",
        "Latitude": "24.8779609",
        "Longitude": "121.055546"
    },
    {
        "編號": "15",
        "屬性": "私立",
        "機構名稱": "新竹縣私立新湖長期照顧中心(養護型)",
        "負責人": "莊碧雲",
        "區域別": "湖口",
        "地址": "30345新竹縣湖口鄉信義村千湖路38巷20號3樓",
        "電話": "03-5997808",
        "收容對象": "養護",
        "核定收容人數": "48",
        "立案日期": "97.11.20",
        "Latitude": "24.8833749",
        "Longitude": "121.0348871"
    },
    {
        "編號": "16",
        "屬性": "私立",
        "機構名稱": "新竹縣私立竹光長期照顧中心(養護型)",
        "負責人": "莊育興",
        "區域別": "湖口",
        "地址": "30345新竹縣湖口鄉信義村千湖路38巷20號1-2樓",
        "電話": "03-5999519",
        "收容對象": "養護",
        "核定收容人數": "48",
        "立案日期": "97.11.28",
        "Latitude": "24.8833749",
        "Longitude": "121.0348871"
    },
    {
        "編號": "17",
        "屬性": "私立",
        "機構名稱": "新竹縣私立德欣老人長期照顧中心(養護型)",
        "負責人": "莊添寶",
        "區域別": "湖口",
        "地址": "30347新竹縣湖口鄉八德路二段713號",
        "電話": "03-5691118",
        "收容對象": "養護",
        "核定收容人數": "37(含插2管18床)",
        "立案日期": "105.08.01",
        "Latitude": "24.8870455",
        "Longitude": "121.084789"
    },
    {
        "編號": "18",
        "屬性": "私立",
        "機構名稱": "新竹縣私立新埔家園長期照顧中心(養護型)",
        "負責人": "方國祥",
        "區域別": "新埔",
        "地址": "30544新竹縣新埔鎮關埔路水車頭段338號",
        "電話": "03-5888893",
        "收容對象": "養護",
        "核定收容人數": "43",
        "立案日期": "101.02.10",
        "Latitude": "24.8182841",
        "Longitude": "121.072343"
    },
    {
        "編號": "19",
        "屬性": "私立",
        "機構名稱": "財團法人台灣省私立桃園仁愛之家附設新竹縣私立新埔長期照顧中心(養護型)",
        "負責人": "李震淮",
        "區域別": "新埔",
        "地址": "30548新竹縣新埔鎮旱坑里18鄰義民路1段566巷71、73、75、77號",
        "電話": "03-5886460",
        "收容對象": "長照",
        "核定收容人數": "60",
        "立案日期": "102.07.31",
        "Latitude": "24.8318868",
        "Longitude": "121.0650348"
    },
    {
        "編號": "19",
        "屬性": "私立",
        "機構名稱": "財團法人台灣省私立桃園仁愛之家附設新竹縣私立新埔長期照顧中心(養護型)",
        "負責人": "李震淮",
        "區域別": "新埔",
        "地址": "30548新竹縣新埔鎮旱坑里18鄰義民路1段566巷71、73、75、77號",
        "電話": "03-5886460",
        "收容對象": "養護",
        "核定收容人數": "80",
        "立案日期": "102.07.31",
        "Latitude": "24.8318868",
        "Longitude": "121.0650348"
    },
    {
        "編號": "19",
        "屬性": "私立",
        "機構名稱": "財團法人台灣省私立桃園仁愛之家附設新竹縣私立新埔長期照顧中心(養護型)",
        "負責人": "李震淮",
        "區域別": "新埔",
        "地址": "30548新竹縣新埔鎮旱坑里18鄰義民路1段566巷71、73、75、77號",
        "電話": "03-5886460",
        "收容對象": "失智",
        "核定收容人數": "60",
        "立案日期": "102.07.31",
        "Latitude": "24.8318868",
        "Longitude": "121.0650348"
    }
]