[
    {
        "編號": "1",
        "屬性": "私立",
        "機構名稱": "新竹市私立人瑞老人長期照顧中心(養護型)",
        "負責人": "吳自強",
        "區域別": "北區",
        "地址": "新竹市金雅里公道五路四段547號",
        "電話": "03-5330080",
        "收容對象": "養護",
        "核定收容人數": "38(含插2管19床)",
        "立案日期": "103.10.25",
        "Latitude": "24.8286315",
        "Longitude": "120.9625264"
    },
    {
        "編號": "2",
        "屬性": "私立",
        "機構名稱": "財團法人基督教中華協力會附設新竹市私立伯大尼老人養護中心",
        "負責人": "林忠雄",
        "區域別": "北區",
        "地址": "新竹市南勢里延平路一段491號",
        "電話": "03-5244222",
        "收容對象": "養護",
        "核定收容人數": "48(含插2管22床)",
        "立案日期": "93.01",
        "Latitude": "24.804876",
        "Longitude": "120.945607"
    },
    {
        "編號": "3",
        "屬性": "私立",
        "機構名稱": "新竹市私立名伸老人養護中心",
        "負責人": "胡月桃",
        "區域別": "北區",
        "地址": "新竹市古賢里東大路三段232巷2號 ",
        "電話": "03-5366472",
        "收容對象": "養護",
        "核定收容人數": "22(含插2管11床)",
        "立案日期": "93.08",
        "Latitude": "24.8298269",
        "Longitude": "120.9556668"
    },
    {
        "編號": "4",
        "屬性": "私立",
        "機構名稱": "新竹市私立松慈老人養護中心",
        "負責人": "陳世杰",
        "區域別": "北區",
        "地址": "新竹市士林里東大路2段65巷36號 ",
        "電話": "03-5355366",
        "收容對象": "養護",
        "核定收容人數": "42(含插2管21床)",
        "立案日期": "98.08",
        "Latitude": "24.823097",
        "Longitude": "120.959909"
    },
    {
        "編號": "5",
        "屬性": "私立",
        "機構名稱": "新竹市私立慈慧老人長期照顧中心(養護型)",
        "負責人": "林正宜",
        "區域別": "北區",
        "地址": "新竹市新民里新民街27之1號及新竹市新民街33巷9號",
        "電話": "03-5266200",
        "收容對象": "養護",
        "核定收容人數": "48(含插2管24床)",
        "立案日期": "101.1",
        "Latitude": "24.8083191",
        "Longitude": "120.963281"
    },
    {
        "編號": "6",
        "屬性": "私立",
        "機構名稱": "財團法人台灣省私立桃園仁愛之家附設新竹老人養護中心",
        "負責人": "李震淮",
        "區域別": "北區",
        "地址": "新竹市興南里西門街116號",
        "電話": "03-5285585",
        "收容對象": "養護   ",
        "核定收容人數": "200(含插2管30床)",
        "立案日期": "89.05",
        "Latitude": "24.8016493",
        "Longitude": "120.9635669"
    },
    {
        "編號": "7",
        "屬性": "私立",
        "機構名稱": "新竹市私立欣安老人長期照顧中心(養護型)",
        "負責人": "陳昱夫",
        "區域別": "東區",
        "地址": "新竹市振興里南大路428號2樓、3樓",
        "電話": "03-5629737",
        "收容對象": "養護",
        "核定收容人數": "43(含插2管21床)",
        "立案日期": "105.01.26",
        "Latitude": "24.79717",
        "Longitude": "120.9686741"
    },
    {
        "編號": "8",
        "屬性": "私立",
        "機構名稱": "新竹市私立青草湖長壽老人養護中心",
        "負責人": "黃俊傑",
        "區域別": "東區",
        "地址": "新竹市柴橋里明湖路1006巷102弄1、2、4號",
        "電話": "03-5293859",
        "收容對象": "養護",
        "核定收容人數": "30(含插2管14床)",
        "立案日期": "95.01",
        "Latitude": "24.7718526",
        "Longitude": "120.9629683"
    },
    {
        "編號": "9",
        "屬性": "私立",
        "機構名稱": "新竹市私立仙樂園老人長期照顧中心(養護型)",
        "負責人": "陳李佳璉",
        "區域別": "香山區",
        "地址": "新竹市中隘里中華路六段647巷75弄1之3號",
        "電話": "03-5371155",
        "收容對象": "養護",
        "核定收容人數": "34(含插2管17床)",
        "立案日期": "88.04",
        "Latitude": "24.7319563",
        "Longitude": "120.9156532"
    },
    {
        "編號": "10",
        "屬性": "私立",
        "機構名稱": "新竹市私立懷親老人養護中心",
        "負責人": "黃金水",
        "區域別": "香山區",
        "地址": "新竹市海山里中華路五段599巷3號",
        "電話": "03-5377686",
        "收容對象": "養護",
        "核定收容人數": "43(含插2管21床)",
        "立案日期": "99.1",
        "Latitude": "24.761056",
        "Longitude": "120.9127529"
    },
    {
        "編號": "11",
        "屬性": "私立",
        "機構名稱": "新竹市私立弘愛老人長期照顧中心(養護型)",
        "負責人": "張弘達",
        "區域別": "東區",
        "地址": "新竹市北區東大路三段180號",
        "電話": "03-5366906",
        "收容對象": "養護",
        "核定收容人數": "43(含插2管21床)",
        "立案日期": "105.01",
        "Latitude": "24.832604",
        "Longitude": "120.9522646"
    },
    {
        "編號": "12",
        "屬性": "私立",
        "機構名稱": "新竹市私立建嘉老人長期照顧中心(養護型)",
        "負責人": "林寶鳳",
        "區域別": "香山區",
        "地址": "新竹市美山里中華路五段392、396號",
        "電話": "03-5386677",
        "收容對象": "養護",
        "核定收容人數": "48(含插2管15床)",
        "立案日期": "97.03",
        "Latitude": "24.7787041",
        "Longitude": "120.918294"
    }
]