[
    {
        "編號": "1",
        "屬性": "私立",
        "機構名稱": "財團法人台灣省私立桃園仁愛之家附設成功養護中心",
        "負責人": "李震淮",
        "區域別": "桃園區",
        "地址": "桃園區成功路2段99號",
        "電話": "03-3394151",
        "收容對象": "養護",
        "核定收容人數": "160(含插2管60床)",
        "立案日期": "84.02",
        "Latitude": "24.9945589",
        "Longitude": "121.3174"
    },
    {
        "編號": "2",
        "屬性": "私立",
        "機構名稱": "桃園市私立長安老人長期照顧中心(養護型)",
        "負責人": "邱創權",
        "區域別": "桃園區",
        "地址": "桃園區延平路42號2樓",
        "電話": "03-3758059",
        "收容對象": "養護",
        "核定收容人數": "20(含插2管9床)",
        "立案日期": "89.06",
        "Latitude": "24.9636125",
        "Longitude": "121.2325404"
    },
    {
        "編號": "3",
        "屬性": "私立",
        "機構名稱": "桃園市私立建元老人長期照顧中心(養護型)",
        "負責人": "劉張秀蓮",
        "區域別": "桃園區",
        "地址": "桃園區大豐路56號1-2樓、60、62號1樓",
        "電話": "03-3631755",
        "收容對象": "養護",
        "核定收容人數": "38(含插2管15床)",
        "立案日期": "89.08",
        "Latitude": "24.9806039",
        "Longitude": "121.31784"
    },
    {
        "編號": "4",
        "屬性": "私立",
        "機構名稱": "桃園市私立伯園老人長期照顧中心(養護型)",
        "負責人": "張世育",
        "區域別": "桃園區",
        "地址": "桃園區三民路三段88號1-2F",
        "電話": "03-3361669",
        "收容對象": "養護",
        "核定收容人數": "13(含插2管6床)",
        "立案日期": "89.08",
        "Latitude": "24.998618",
        "Longitude": "121.308371"
    },
    {
        "編號": "5",
        "屬性": "私立",
        "機構名稱": "桃園市私立逸園老人長期照顧中心(養護型)",
        "負責人": "曾明智",
        "區域別": "桃園區",
        "地址": "桃園區民富五街5、7號1、2樓、5之2號3樓",
        "電話": "03-3319523",
        "收容對象": "養護",
        "核定收容人數": "48(含插2管18床)",
        "立案日期": "100.12",
        "Latitude": "25.0064017",
        "Longitude": "121.3171342"
    },
    {
        "編號": "6",
        "屬性": "私立",
        "機構名稱": "桃園市私立慈家老人長期照顧中心(養護型)",
        "負責人": "蕭陳阿琴",
        "區域別": "桃園區",
        "地址": "桃園區新生路165號6樓之1",
        "電話": "03-3331155",
        "收容對象": "養護",
        "核定收容人數": "40(含插2管12床)",
        "立案日期": "90.08",
        "Latitude": "24.9962219",
        "Longitude": "121.308045"
    },
    {
        "編號": "7",
        "屬性": "私立",
        "機構名稱": "桃園市私立慈庭老人長期照顧中心(長期照護型)",
        "負責人": "蕭陳阿琴",
        "區域別": "桃園區",
        "地址": "桃園區新生路165號6樓之2",
        "電話": "03-3319379",
        "收容對象": "長照",
        "核定收容人數": "27",
        "立案日期": "90.1",
        "Latitude": "24.9962219",
        "Longitude": "121.308045"
    },
    {
        "編號": "8",
        "屬性": "私立",
        "機構名稱": "桃園市私立逸慈老人長期照顧中心(養護型) ",
        "負責人": "李如雅",
        "區域別": "桃園區",
        "地址": "桃園區寶慶路201號1F",
        "電話": "03-3015051",
        "收容對象": "安養",
        "核定收容人數": "3",
        "立案日期": "91.03",
        "Latitude": "25.0137923",
        "Longitude": "121.292312"
    },
    {
        "編號": "8",
        "屬性": "私立",
        "機構名稱": "桃園市私立逸慈老人長期照顧中心(養護型) ",
        "負責人": "李如雅",
        "區域別": "桃園區",
        "地址": "桃園區寶慶路201號1F",
        "電話": "03-3015051",
        "收容對象": "養護",
        "核定收容人數": "46(含插2管22床)",
        "立案日期": "91.03",
        "Latitude": "25.0137923",
        "Longitude": "121.292312"
    },
    {
        "編號": "9",
        "屬性": "私立",
        "機構名稱": "桃園市私立台大老人長期照顧中心(養護型)",
        "負責人": "鄭淑卿",
        "區域別": "桃園區",
        "地址": "桃園區經國路242號4樓",
        "電話": "03-3555036",
        "收容對象": "養護",
        "核定收容人數": "30(含插2管15床)",
        "立案日期": "91.06",
        "Latitude": "25.020557",
        "Longitude": "121.304002"
    },
    {
        "編號": "10",
        "屬性": "私立",
        "機構名稱": "桃園市私立慈安老人長期照顧中心(養護型)",
        "負責人": "鄭美玲",
        "區域別": "桃園區",
        "地址": "桃園區中山路956巷93號1樓(B1)",
        "電話": "03-3609856",
        "收容對象": "養護",
        "核定收容人數": "27(含插2管13床)",
        "立案日期": "103.05",
        "Latitude": "24.9552654",
        "Longitude": "121.2258701"
    },
    {
        "編號": "11",
        "屬性": "私立",
        "機構名稱": "桃園市私立康全老人長期照顧中心(養護型)",
        "負責人": "許寶全",
        "區域別": "桃園區",
        "地址": "桃園區樹林四街26號1、2樓(B1)",
        "電話": "03-3615577",
        "收容對象": "養護",
        "核定收容人數": "38(含插2管15床)",
        "立案日期": "96.01",
        "Latitude": "24.9789973",
        "Longitude": "121.3132075"
    },
    {
        "編號": "12",
        "屬性": "私立",
        "機構名稱": "桃園市私立家悅老人長期照顧中心(養護型)",
        "負責人": "周東耀",
        "區域別": "桃園區",
        "地址": "桃園區新生路165號5樓之2",
        "電話": "03-3342139",
        "收容對象": "養護",
        "核定收容人數": "49(含插2管15床)",
        "立案日期": "96.02",
        "Latitude": "24.9962219",
        "Longitude": "121.308045"
    },
    {
        "編號": "13",
        "屬性": "私立",
        "機構名稱": "桃園市私立康益老人長期照顧中心(養護型)",
        "負責人": "周哲輝",
        "區域別": "桃園區",
        "地址": "桃園區新生路165號5樓之1",
        "電話": "03-3347259",
        "收容對象": "養護",
        "核定收容人數": "21(含插2管10床)",
        "立案日期": "105.1",
        "Latitude": "24.9962219",
        "Longitude": "121.308045"
    },
    {
        "編號": "14",
        "屬性": "私立",
        "機構名稱": "桃園市私立陽光老人長期照顧中心（養護型）",
        "負責人": "蕭淑惠",
        "區域別": "桃園區",
        "地址": "桃園區國際路一段264號1樓",
        "電話": "03-3618728",
        "收容對象": "養護",
        "核定收容人數": "15(含插2管7床)",
        "立案日期": "105.12.06",
        "Latitude": "25.0704567",
        "Longitude": "121.1966178"
    },
    {
        "編號": "15",
        "屬性": "私立",
        "機構名稱": "桃園市私立同安老人長期照顧中心(養護型)",
        "負責人": "曾國銘",
        "區域別": "桃園區",
        "地址": "桃園區新埔七街101號1樓",
        "電話": "03-3552546",
        "收容對象": "養護",
        "核定收容人數": "40(含插2管10床)",
        "立案日期": "100.05",
        "Latitude": "25.0204166",
        "Longitude": "121.3010272"
    },
    {
        "編號": "16",
        "屬性": "私立",
        "機構名稱": "桃園市私立康健老人長期照顧中心(養護型)",
        "負責人": "許松峰",
        "區域別": "桃園區",
        "地址": "桃園區新埔七街101號2、3樓",
        "電話": "03-3162606",
        "收容對象": "養護",
        "核定收容人數": "48(含插2管10床)",
        "立案日期": "101.02",
        "Latitude": "25.0184618",
        "Longitude": "121.3023967"
    },
    {
        "編號": "17",
        "屬性": "私立",
        "機構名稱": "桃園市私立慈恩老人長期照顧中心(養護型)",
        "負責人": "廖千惠",
        "區域別": "中壢區",
        "地址": "中壢區自立里自立三街二巷16、18號(1-3F)",
        "電話": "03-4558858",
        "收容對象": "養護",
        "核定收容人數": "28(含插2管14床)",
        "立案日期": "89.01",
        "Latitude": "24.9636855",
        "Longitude": "121.253622"
    },
    {
        "編號": "18",
        "屬性": "私立",
        "機構名稱": "桃園市私立桃源老人長期照顧中心(養護型)",
        "負責人": "蕭秀玲",
        "區域別": "中壢區",
        "地址": "中壢區吉林二路101巷15號1F",
        "電話": "03-4615050",
        "收容對象": "養護",
        "核定收容人數": "36(含插2管10床)",
        "立案日期": "102.08",
        "Latitude": "24.9834149",
        "Longitude": "121.248601"
    },
    {
        "編號": "19",
        "屬性": "私立",
        "機構名稱": "桃園市私立長祐老人長期照顧中心(養護型)",
        "負責人": "沈益平",
        "區域別": "中壢區",
        "地址": "中壢區環中東路188號、190號2樓",
        "電話": "03-4356337",
        "收容對象": "養護        ",
        "核定收容人數": "46(含插2管23床)",
        "立案日期": "95.03",
        "Latitude": "24.9640286",
        "Longitude": "121.2573901"
    },
    {
        "編號": "20",
        "屬性": "私立",
        "機構名稱": "桃園市私立東陽老人長期照顧中心(養護型)",
        "負責人": "簡麗玉",
        "區域別": "中壢區",
        "地址": "中壢區內壢興仁路二段152之2號",
        "電話": "03-2850571",
        "收容對象": "養護      ",
        "核定收容人數": "48(含插管24床)",
        "立案日期": "88.1",
        "Latitude": "24.9661819",
        "Longitude": "121.263223"
    },
    {
        "編號": "21",
        "屬性": "私立",
        "機構名稱": "財團法人桃園市私立甡光社會福利基金會附設桃園市私立甡光老人長期照顧中心（養護型）",
        "負責人": "楊牡真",
        "區域別": "平鎮區",
        "地址": "平鎮區南平路二段516巷99號(1-3F、B1)",
        "電話": "03-4643380",
        "收容對象": "養護  ",
        "核定收容人數": "196(含插2管76床)",
        "立案日期": "91.06",
        "Latitude": "24.9224599",
        "Longitude": "121.192189"
    },
    {
        "編號": "22",
        "屬性": "私立",
        "機構名稱": "財團法人桃園市私立國宏老人長期照顧中心（養護型）",
        "負責人": "吳黃玉英",
        "區域別": "平鎮區",
        "地址": "平鎮區北貴里20鄰關爺東路19-5號(1-2F、B1)",
        "電話": "03-4582977",
        "收容對象": "養護",
        "核定收容人數": "93(含插2管45床)",
        "立案日期": "91.06",
        "Latitude": "24.929299",
        "Longitude": "121.220611"
    },
    {
        "編號": "23",
        "屬性": "私立",
        "機構名稱": "桃園市私立瑞生老人長期照顧中心(養護型)",
        "負責人": "陳瑞玉",
        "區域別": "平鎮區",
        "地址": "平鎮區金陵路五段32之1號.32之2號(1-2F)",
        "電話": "03-4502966",
        "收容對象": "養護",
        "核定收容人數": "42(含插2管18床)",
        "立案日期": "97.07",
        "Latitude": "24.9118164",
        "Longitude": "121.2309303"
    },
    {
        "編號": "23",
        "屬性": "私立",
        "機構名稱": "桃園市私立瑞生老人長期照顧中心(養護型)",
        "負責人": "陳瑞玉",
        "區域別": "平鎮區",
        "地址": "平鎮區金陵路五段32之1號.32之2號(1-2F)",
        "電話": "03-4502966",
        "收容對象": "長照",
        "核定收容人數": "42(含插2管18床)",
        "立案日期": "97.07",
        "Latitude": "24.9118164",
        "Longitude": "121.2309303"
    },
    {
        "編號": "24",
        "屬性": "私立",
        "機構名稱": "桃園市私立八德老人長期照顧中心(養護型)",
        "負責人": "王清明",
        "區域別": "八德區",
        "地址": "八德區大智里介壽路一段758巷8號",
        "電話": "03-2182128",
        "收容對象": "養護",
        "核定收容人數": "40(含插2管18床)",
        "立案日期": "93.12",
        "Latitude": "24.9675507",
        "Longitude": "121.3014777"
    },
    {
        "編號": "24",
        "屬性": "私立",
        "機構名稱": "桃園市私立八德老人長期照顧中心(養護型)",
        "負責人": "王清明",
        "區域別": "八德區",
        "地址": "八德區大智里介壽路一段758巷8號",
        "電話": "03-2182128",
        "收容對象": "長照",
        "核定收容人數": "40(含插2管18床)",
        "立案日期": "93.12",
        "Latitude": "24.9675507",
        "Longitude": "121.3014777"
    },
    {
        "編號": "25",
        "屬性": "私立",
        "機構名稱": "桃園市私立佳緣老人長期照顧中心(養護型)",
        "負責人": "張淑玉",
        "區域別": "八德區",
        "地址": "八德區中華路92號",
        "電話": "03-3797266 ",
        "收容對象": "養護",
        "核定收容人數": "16(含插2管5床)",
        "立案日期": "101.12",
        "Latitude": "24.9855394",
        "Longitude": "121.280471"
    },
    {
        "編號": "26",
        "屬性": "私立",
        "機構名稱": "財團法人台灣省私立桃園仁愛之家",
        "負責人": "李震淮",
        "區域別": "楊梅區",
        "地址": "楊梅區高榮里梅獅路539巷3號",
        "電話": "03-4643385",
        "收容對象": "安養",
        "核定收容人數": "110",
        "立案日期": "66.05",
        "Latitude": "24.924784",
        "Longitude": "121.185548"
    },
    {
        "編號": "26",
        "屬性": "私立",
        "機構名稱": "財團法人台灣省私立桃園仁愛之家",
        "負責人": "李震淮",
        "區域別": "楊梅區",
        "地址": "楊梅區高榮里梅獅路539巷3號",
        "電話": "03-4643385",
        "收容對象": "養護",
        "核定收容人數": "293(含2管45床)",
        "立案日期": "66.05",
        "Latitude": "24.924784",
        "Longitude": "121.185548"
    },
    {
        "編號": "27",
        "屬性": "私立",
        "機構名稱": "桃園市私立明新老人長期照顧中心(養護型)",
        "負責人": "陸欣宜",
        "區域別": "楊梅區",
        "地址": "楊梅區裕成南路313號、315號1樓",
        "電話": "03-4314349",
        "收容對象": "養護",
        "核定收容人數": "13(含插2管6床)",
        "立案日期": "103.07",
        "Latitude": "24.8992564",
        "Longitude": "121.1577865"
    },
    {
        "編號": "28",
        "屬性": "私立",
        "機構名稱": "桃園市私立家輔老人長期照顧中心（養護型）",
        "負責人": "游維國",
        "區域別": "大溪區",
        "地址": "大溪區天祥街1號",
        "電話": "03-3878806",
        "收容對象": "養護",
        "核定收容人數": "16(含插2管7床)",
        "立案日期": "92.06",
        "Latitude": "24.8784162",
        "Longitude": "121.2884729"
    },
    {
        "編號": "29",
        "屬性": "公設民營",
        "機構名稱": "財團法人桃園市私立怡德老人長期照顧中心承辦桃園市蘆竹區老人長期照顧中心(養護型)",
        "負責人": "古梓龍",
        "區域別": "蘆竹區",
        "地址": "蘆竹區山腳里5鄰黃帝街168號",
        "電話": "03-3245369",
        "收容對象": "養護",
        "核定收容人數": "200(含插2管40床)",
        "立案日期": "98.02",
        "Latitude": "25.0904131",
        "Longitude": "121.293456"
    },
    {
        "編號": "30",
        "屬性": "私立",
        "機構名稱": "桃園市私立台北老人長期照顧中心（養護型）",
        "負責人": "張永當",
        "區域別": "蘆竹區",
        "地址": "蘆竹區坑子里13鄰八德一路263號",
        "電話": "03-3246538",
        "收容對象": "養護",
        "核定收容人數": "46(含插2管22床)",
        "立案日期": "91.06",
        "Latitude": "25.0658612",
        "Longitude": "121.3445608"
    },
    {
        "編號": "31",
        "屬性": "私立",
        "機構名稱": "桃園市私立友愛老人長期照顧中心（養護型）",
        "負責人": "游?妹",
        "區域別": "蘆竹區",
        "地址": "蘆竹區新興街273巷63號、65號1樓",
        "電話": "03-3027510",
        "收容對象": "養護",
        "核定收容人數": "47(含插2管16床)",
        "立案日期": "89.07",
        "Latitude": "25.010129",
        "Longitude": "121.272792"
    },
    {
        "編號": "32",
        "屬性": "私立",
        "機構名稱": "桃園市私立大園老人長期照顧中心（養護型）",
        "負責人": "李應發",
        "區域別": "大園區",
        "地址": "大園區圳頭里6鄰33-8號",
        "電話": "03-3864499",
        "收容對象": "養護",
        "核定收容人數": "44(含插2管15床)",
        "立案日期": "90.06",
        "Latitude": "25.080137",
        "Longitude": "121.2014719"
    },
    {
        "編號": "33",
        "屬性": "私立",
        "機構名稱": "桃園市私立長青老人長期照顧中心（養護型）",
        "負責人": "黃漢清",
        "區域別": "大園區",
        "地址": "大園區田心里華興路1段81號",
        "電話": "03-3861559",
        "收容對象": "養護",
        "核定收容人數": "49(含插2管21床)",
        "立案日期": "96.08",
        "Latitude": "25.0530724",
        "Longitude": "121.1979522"
    },
    {
        "編號": "34",
        "屬性": "私立",
        "機構名稱": "桃園市私立祥安老人長期照顧中心（養護型）",
        "負責人": "黃日華",
        "區域別": "龜山區",
        "地址": "龜山區文化三路78巷30弄26號",
        "電話": "03-3975862",
        "收容對象": "安養",
        "核定收容人數": "6",
        "立案日期": "89.04",
        "Latitude": "25.0582269",
        "Longitude": "121.3613879"
    },
    {
        "編號": "34",
        "屬性": "私立",
        "機構名稱": "桃園市私立祥安老人長期照顧中心（養護型）",
        "負責人": "黃日華",
        "區域別": "龜山區",
        "地址": "龜山區文化三路78巷30弄26號",
        "電話": "03-3975862",
        "收容對象": "養護",
        "核定收容人數": "40(含插2管15床)",
        "立案日期": "89.04",
        "Latitude": "25.0582269",
        "Longitude": "121.3613879"
    },
    {
        "編號": "35",
        "屬性": "私立",
        "機構名稱": "桃園市私立慈慧老人長期照顧中心（養護型）",
        "負責人": "王培墻",
        "區域別": "龜山區",
        "地址": "龜山區萬壽路二段345號",
        "電話": "03-3194922",
        "收容對象": "養護",
        "核定收容人數": "23(含插2管10床)",
        "立案日期": "89.06",
        "Latitude": "25.0012129",
        "Longitude": "121.356368"
    },
    {
        "編號": "36",
        "屬性": "私立",
        "機構名稱": "桃園市私立愈健老人長期照顧中心(養護型)",
        "負責人": "陳敬吾",
        "區域別": "龜山區",
        "地址": "龜山區大湖里文三三街5巷5號",
        "電話": "03-3181946",
        "收容對象": "養護       ",
        "核定收容人數": " 49(含插2管18床)          ",
        "立案日期": "90.09",
        "Latitude": "25.0554078",
        "Longitude": "121.3605563"
    },
    {
        "編號": "37",
        "屬性": "私立",
        "機構名稱": "桃園市私立吳木同老人長期照顧中心（養護型）",
        "負責人": "吳忠和",
        "區域別": "龜山區",
        "地址": "龜山區大坑里17鄰陳厝坑路395號",
        "電話": "03-3161021",
        "收容對象": "養護",
        "核定收容人數": "49(含插2管24床)",
        "立案日期": "91.07",
        "Latitude": "25.0601195",
        "Longitude": "121.3419896"
    },
    {
        "編號": "38",
        "屬性": "私立",
        "機構名稱": "桃園市私立松林老人長期照顧中心（長期照護型）",
        "負責人": "黃興富",
        "區域別": "龜山區",
        "地址": "龜山區復興北路6巷42號",
        "電話": "03-3288001 03-3288158",
        "收容對象": "長照",
        "核定收容人數": "46",
        "立案日期": "93.04",
        "Latitude": "25.0586786",
        "Longitude": "121.367863"
    },
    {
        "編號": "39",
        "屬性": "私立",
        "機構名稱": "桃園市私立友緣老人長期照顧中心（養護型）",
        "負責人": "陳彥榕",
        "區域別": "龜山區",
        "地址": "龜山區萬壽路2段345號3樓",
        "電話": "03-3195969",
        "收容對象": "養護",
        "核定收容人數": "39(含插2管16床)",
        "立案日期": "97.09",
        "Latitude": "25.0012129",
        "Longitude": "121.356368"
    },
    {
        "編號": "40",
        "屬性": "私立",
        "機構名稱": "桃園市私立真愛老人長期照顧中心（養護型）",
        "負責人": "許亨任",
        "區域別": "龜山區",
        "地址": "龜山區萬壽路一段163號3樓之1、之2",
        "電話": "02-82000148",
        "收容對象": "養護",
        "核定收容人數": "32(含插2管15床)",
        "立案日期": "98.04",
        "Latitude": "25.0182413",
        "Longitude": "121.4071035"
    },
    {
        "編號": "41",
        "屬性": "私立",
        "機構名稱": "桃園市私立恩典長期照顧中心（養護型）",
        "負責人": "李政勳",
        "區域別": "龜山區",
        "地址": "龜山區萬壽路二段956號2,3樓",
        "電話": "03-3498111",
        "收容對象": "養護",
        "核定收容人數": "40(含插2管20床)",
        "立案日期": "101.12",
        "Latitude": "24.9956831",
        "Longitude": "121.3377945"
    },
    {
        "編號": "42",
        "屬性": "私立",
        "機構名稱": "財團法人桃園市私立怡德養護中心(養護型)",
        "負責人": "林建志",
        "區域別": "龍潭區",
        "地址": "龍潭區中正路三林段619巷105號(1-4F、B1)",
        "電話": "03-4092468",
        "收容對象": "養護",
        "核定收容人數": "142",
        "立案日期": "93.1",
        "Latitude": "24.8528638",
        "Longitude": "121.2234537"
    },
    {
        "編號": "42",
        "屬性": "私立",
        "機構名稱": "財團法人桃園市私立怡德養護中心(養護型)",
        "負責人": "林建志",
        "區域別": "龍潭區",
        "地址": "龍潭區中正路三林段619巷105號(1-4F、B1)",
        "電話": "03-4092468",
        "收容對象": "長照",
        "核定收容人數": "58",
        "立案日期": "93.1",
        "Latitude": "24.8528638",
        "Longitude": "121.2234537"
    },
    {
        "編號": "43",
        "屬性": "私立",
        "機構名稱": "桃園市私立佳心老人長期照顧中心(養護型)",
        "負責人": "麥樹妹",
        "區域別": "龍潭區",
        "地址": "龍潭區中興路211巷30號(1-3F)",
        "電話": "03-4995577",
        "收容對象": "安養",
        "核定收容人數": "5",
        "立案日期": "88.11",
        "Latitude": "24.8741947",
        "Longitude": "121.2359024"
    },
    {
        "編號": "43",
        "屬性": "私立",
        "機構名稱": "桃園市私立佳心老人長期照顧中心(養護型)",
        "負責人": "麥樹妹",
        "區域別": "龍潭區",
        "地址": "龍潭區中興路211巷30號(1-3F)",
        "電話": "03-4995577",
        "收容對象": "養護",
        "核定收容人數": "29",
        "立案日期": "88.11",
        "Latitude": "24.8741947",
        "Longitude": "121.2359024"
    },
    {
        "編號": "43",
        "屬性": "私立",
        "機構名稱": "桃園市私立佳心老人長期照顧中心(養護型)",
        "負責人": "麥樹妹",
        "區域別": "龍潭區",
        "地址": "龍潭區中興路211巷30號(1-3F)",
        "電話": "03-4995577",
        "收容對象": "長照",
        "核定收容人數": "8",
        "立案日期": "88.11",
        "Latitude": "24.8741947",
        "Longitude": "121.2359024"
    },
    {
        "編號": "44",
        "屬性": "私立",
        "機構名稱": "桃園市私立厚德老人長期照顧中心(養護型)",
        "負責人": "謝孟君",
        "區域別": "龍潭區",
        "地址": "龍潭區高原里高原路239號(1-2F)",
        "電話": "03-4718866",
        "收容對象": "養護      ",
        "核定收容人數": "49(含插2管23床) ",
        "立案日期": "104.09",
        "Latitude": "24.832915",
        "Longitude": "121.201394"
    },
    {
        "編號": "45",
        "屬性": "私立",
        "機構名稱": "桃園市私立龍祥老人長期照顧中心(長期照護型)",
        "負責人": "賴庭槐",
        "區域別": "龍潭區",
        "地址": "龍潭區高平里高楊南路97-1號1F",
        "電話": "03-4719302",
        "收容對象": "長照",
        "核定收容人數": "42",
        "立案日期": "100.12",
        "Latitude": "24.8367321",
        "Longitude": "121.21123"
    },
    {
        "編號": "46",
        "屬性": "私立",
        "機構名稱": "桃園市私立慈航老人長期照顧中心(養護型)",
        "負責人": "翁廷升",
        "區域別": "龍潭區",
        "地址": "龍潭區富林里中正路三林段619巷3號(1-2F)",
        "電話": "03-4097532",
        "收容對象": "養護 ",
        "核定收容人數": "23",
        "立案日期": "92.02",
        "Latitude": "24.8496296",
        "Longitude": "121.2291001"
    },
    {
        "編號": "46",
        "屬性": "私立",
        "機構名稱": "桃園市私立慈航老人長期照顧中心(養護型)",
        "負責人": "翁廷升",
        "區域別": "龍潭區",
        "地址": "龍潭區富林里中正路三林段619巷3號(1-2F)",
        "電話": "03-4097532",
        "收容對象": "長照",
        "核定收容人數": "20",
        "立案日期": "92.02",
        "Latitude": "24.8496296",
        "Longitude": "121.2291001"
    },
    {
        "編號": "47",
        "屬性": "私立",
        "機構名稱": "桃園市私立庭園老人長期照顧中心（養護型）",
        "負責人": "劉豈賓",
        "區域別": "龍潭區",
        "地址": "龍潭區南龍路42號1F",
        "電話": "03-4991812",
        "收容對象": "養護",
        "核定收容人數": "24",
        "立案日期": "97.03",
        "Latitude": "24.864325",
        "Longitude": "121.212811"
    },
    {
        "編號": "47",
        "屬性": "私立",
        "機構名稱": "桃園市私立庭園老人長期照顧中心（養護型）",
        "負責人": "劉豈賓",
        "區域別": "龍潭區",
        "地址": "龍潭區南龍路42號1F",
        "電話": "03-4991812",
        "收容對象": "長照",
        "核定收容人數": "12",
        "立案日期": "97.03",
        "Latitude": "24.864325",
        "Longitude": "121.212811"
    },
    {
        "編號": "48",
        "屬性": "私立",
        "機構名稱": "財團法人桃園市私立佳安老人長期照顧中心(養護型)",
        "負責人": "吳有成",
        "區域別": "龍潭區",
        "地址": "龍潭區佳安西路4巷101號(1-6F)",
        "電話": "03-4111111",
        "收容對象": "養護",
        "核定收容人數": "124(含插2管49床)",
        "立案日期": "101.02",
        "Latitude": "24.8381179",
        "Longitude": "121.237204"
    },
    {
        "編號": "49",
        "屬性": "私立",
        "機構名稱": "桃園市私立慈園老人長期照顧中心(養護型)",
        "負責人": "黃翊慈",
        "區域別": "龍潭區",
        "地址": "龍潭區武中路558號",
        "電話": "03-4700766",
        "收容對象": "養護",
        "核定收容人數": "43(含插2管15床)",
        "立案日期": "102.05",
        "Latitude": "24.8845359",
        "Longitude": "121.2372898"
    },
    {
        "編號": "50",
        "屬性": "私立",
        "機構名稱": "桃園市私立欣園老人長期照顧中心(養護型)",
        "負責人": "李富森",
        "區域別": "龍潭區",
        "地址": "新屋區頭洲里梅高路三段八號1F-2F",
        "電話": "03-4207286",
        "收容對象": "養護",
        "核定收容人數": "31(含插2管14床)",
        "立案日期": "97.01",
        "Latitude": "24.9517313",
        "Longitude": "121.1485623"
    },
    {
        "編號": "51",
        "屬性": "私立",
        "機構名稱": "桃園市私立龍德老人長期照顧中心（養護型）",
        "負責人": "林淑虹",
        "區域別": "新屋區",
        "地址": "新屋區三民路265巷68號1F",
        "電話": "03-4970361",
        "收容對象": "養護",
        "核定收容人數": "46(含插2管22床)",
        "立案日期": "98.04",
        "Latitude": "24.966707",
        "Longitude": "121.104508"
    },
    {
        "編號": "52",
        "屬性": "私立",
        "機構名稱": "桃園市私立祐康老人長期照顧中心(養護型)",
        "負責人": "吳林美妹",
        "區域別": "新屋區",
        "地址": "新屋區文化路一段823巷29號1F",
        "電話": "03-4768663",
        "收容對象": "養護",
        "核定收容人數": "49(含插2管24床)",
        "立案日期": "105.11.21",
        "Latitude": "24.9564162",
        "Longitude": "121.0123162"
    },
    {
        "編號": "53",
        "屬性": "私立",
        "機構名稱": "桃園市私立富佑老人長期照顧中心(養護型)",
        "負責人": "鄭玉蓮",
        "區域別": "新屋區",
        "地址": "楊梅區富豐南路418號",
        "電話": "03-4721972",
        "收容對象": "養護",
        "核定收容人數": "49(含插管15床)",
        "立案日期": "103.02",
        "Latitude": "24.9312603",
        "Longitude": "121.0777953"
    },
    {
        "編號": "54",
        "屬性": "私立",
        "機構名稱": "桃園市私立眾生老人長期照顧中心(養護型)",
        "負責人": "徐芬",
        "區域別": "大溪區",
        "地址": "大溪區福安里28鄰三層91之2號1-4樓",
        "電話": "03-3887167",
        "收容對象": "養護",
        "核定收容人數": "49(含插管24床)",
        "立案日期": "103.06",
        "Latitude": "24.8600226",
        "Longitude": "121.2954971"
    },
    {
        "編號": "55",
        "屬性": "私立",
        "機構名稱": "桃園市私立宜家老人長期照顧中心(養護型)",
        "負責人": "陳芷晴",
        "區域別": "桃園區",
        "地址": "桃園區經國路242號2樓",
        "電話": "03-3568881",
        "收容對象": "養護",
        "核定收容人數": "49(含插管24床)",
        "立案日期": "104.12",
        "Latitude": "25.020557",
        "Longitude": "121.304002"
    },
    {
        "編號": "56",
        "屬性": "私立",
        "機構名稱": "桃園市私立愛心老人長期照顧中心(養護型)",
        "負責人": "鍾朝麟",
        "區域別": "龍潭區",
        "地址": "龍潭區龍元路45號1樓",
        "電話": "03-4990650",
        "收容對象": "養護",
        "核定收容人數": "22(含插管11床)",
        "立案日期": "104.11",
        "Latitude": "24.8643169",
        "Longitude": "121.212755"
    },
    {
        "編號": "57",
        "屬性": "私立",
        "機構名稱": "桃園市私立吉安老人長期照顧中心(養護型)",
        "負責人": "趙玉華",
        "區域別": "桃園區",
        "地址": "桃園區朝陽街二段26、28號",
        "電話": "03-3345631",
        "收容對象": "養護",
        "核定收容人數": "34(含插管17床)",
        "立案日期": "103.08",
        "Latitude": "24.9915917",
        "Longitude": "121.3157342"
    },
    {
        "編號": "58",
        "屬性": "私立",
        "機構名稱": "桃園市私立馨禾老人長期照顧中心（養護型）",
        "負責人": "儲喻如",
        "區域別": "蘆竹區",
        "地址": "蘆竹區文中路一段108號",
        "電話": "03-3782533",
        "收容對象": "養護",
        "核定收容人數": "49(含插管24床)",
        "立案日期": "103.01",
        "Latitude": "24.991687",
        "Longitude": "121.268752"
    },
    {
        "編號": "59",
        "屬性": "私立",
        "機構名稱": "桃園市私立真愛華園老人長期照顧中心(養護型)",
        "負責人": "許淳雅",
        "區域別": "中壢區",
        "地址": "中壢區新生路65號6樓之2",
        "電話": "03-4258367",
        "收容對象": "養護",
        "核定收容人數": "42(含插管21床)",
        "立案日期": "103.11",
        "Latitude": "24.95869",
        "Longitude": "121.222362"
    },
    {
        "編號": "60",
        "屬性": "私立",
        "機構名稱": "桃園市私立雲鵬老人長期照顧中心(養護型)",
        "負責人": "李鈺堂",
        "區域別": "楊梅區",
        "地址": "楊梅區中山北路一段319號",
        "電話": "03-4881300",
        "收容對象": "養護",
        "核定收容人數": "49(含插管24床)",
        "立案日期": "104.04",
        "Latitude": "24.9082424",
        "Longitude": "121.1562033"
    },
    {
        "編號": "61",
        "屬性": "私立",
        "機構名稱": "桃園市私立大溪老人長期照顧中心(養護型)",
        "負責人": "王鐶潤",
        "區域別": "大溪區",
        "地址": "大溪區慈湖路85號4樓",
        "電話": "03-3870119",
        "收容對象": "養護",
        "核定收容人數": "43(含插管21床)",
        "立案日期": "104.09",
        "Latitude": "24.8824073",
        "Longitude": "121.2889883"
    },
    {
        "編號": "62",
        "屬性": "私立",
        "機構名稱": "桃園市私立恩澤老人長期照顧中心(養護型)",
        "負責人": "李靜怡",
        "區域別": "桃園區",
        "地址": "桃園區中央街26號1樓",
        "電話": "03-3333636",
        "收容對象": "養護",
        "核定收容人數": "41(含插管20床)",
        "立案日期": "104.11",
        "Latitude": "24.9958118",
        "Longitude": "121.3176013"
    },
    {
        "編號": "63",
        "屬性": "私立",
        "機構名稱": "財團法人天下為公社會福利基金會附設桃園市私立龍潭老人長期照顧中心(養護型)",
        "負責人": "胡世賢",
        "區域別": "龍潭區",
        "地址": "龍潭區高原里8鄰南坑路3-5號1-4樓",
        "電話": "03-4116889",
        "收容對象": "養護",
        "核定收容人數": "143(含插管71床)",
        "立案日期": "105.07",
        "Latitude": "24.8295096",
        "Longitude": "121.19269"
    },
    {
        "編號": "64",
        "屬性": "私立",
        "機構名稱": "桃園市私立宥恩老人長期照顧中心(養護型)",
        "負責人": "陳勝烽",
        "區域別": "龜山區",
        "地址": "龜山區萬壽路2段345號3樓",
        "電話": "03-3195981",
        "收容對象": "養護",
        "核定收容人數": "31(含插管15床)",
        "立案日期": "105.1",
        "Latitude": "25.0012129",
        "Longitude": "121.356368"
    },
    {
        "編號": "65",
        "屬性": "私立",
        "機構名稱": "桃園市私立陽光空氣水老人長期照顧中心(養護型)",
        "負責人": "盧國裕",
        "區域別": "桃園區",
        "地址": "桃園區中正路720之7號8樓",
        "電話": "03-3588966",
        "收容對象": "養護",
        "核定收容人數": "48(含插管23床)",
        "立案日期": "105.12.6",
        "Latitude": "25.0080033",
        "Longitude": "121.3029707"
    }
]