[
    {
        "編號": "1",
        "屬性": "公立",
        "機構名稱": "臺北市立浩然敬老院",
        "負責人": "張婌文",
        "區域別": "北投區",
        "地址": "臺北市北投區關渡里016鄰知行路76號",
        "電話": "02-28585352",
        "收容對象": "安養",
        "核定收容人數": "261",
        "立案日期": "75.02",
        "Latitude": "25.1182931",
        "Longitude": "121.4681425"
    },
    {
        "編號": "1",
        "屬性": "公立",
        "機構名稱": "臺北市立浩然敬老院",
        "負責人": "張婌文",
        "區域別": "北投區",
        "地址": "臺北市北投區關渡里016鄰知行路76號",
        "電話": "02-28585352",
        "收容對象": "養護",
        "核定收容人數": "139",
        "立案日期": "75.02",
        "Latitude": "25.1182931",
        "Longitude": "121.4681425"
    },
    {
        "編號": "2",
        "屬性": "公立",
        "機構名稱": "臺北市政府社會局老人自費安養中心",
        "負責人": "許立民",
        "區域別": "文山區",
        "地址": "臺北市文山區忠順里009鄰興隆路4段109巷30弄6號",
        "電話": "02-29393147",
        "收容對象": "安養",
        "核定收容人數": "378",
        "立案日期": "71.12",
        "Latitude": "24.986284",
        "Longitude": "121.562475"
    },
    {
        "編號": "3",
        "屬性": "公設民營",
        "機構名稱": "臺北市至善老人安養護中心",
        "負責人": "馬漢光",
        "區域別": "士林區",
        "地址": "臺北市士林區永福里001鄰仰德大道2段2巷50號",
        "電話": "02-28832666 ",
        "收容對象": "安養 ",
        "核定收容人數": "153",
        "立案日期": "92.12",
        "Latitude": "25.1019103",
        "Longitude": "121.5432482"
    },
    {
        "編號": "3",
        "屬性": "公設民營",
        "機構名稱": "臺北市至善老人安養護中心",
        "負責人": "馬漢光",
        "區域別": "士林區",
        "地址": "臺北市士林區永福里001鄰仰德大道2段2巷50號",
        "電話": "02-28832666 ",
        "收容對象": "養護 ",
        "核定收容人數": "236(含插2管46床)              ",
        "立案日期": "92.12",
        "Latitude": "25.1019103",
        "Longitude": "121.5432482"
    },
    {
        "編號": "3",
        "屬性": "公設民營",
        "機構名稱": "臺北市至善老人安養護中心",
        "負責人": "馬漢光",
        "區域別": "士林區",
        "地址": "臺北市士林區永福里001鄰仰德大道2段2巷50號",
        "電話": "02-28832666 ",
        "收容對象": "長照 ",
        "核定收容人數": "82",
        "立案日期": "92.12",
        "Latitude": "25.1019103",
        "Longitude": "121.5432482"
    },
    {
        "編號": "4",
        "屬性": "公設民營",
        "機構名稱": "臺北市文山老人養護中心",
        "負責人": "王仁宏",
        "區域別": "文山區",
        "地址": "臺北市文山區興豐里016鄰興隆路2段95巷8號3~6樓",
        "電話": "02-89313190",
        "收容對象": "養護  ",
        "核定收容人數": "46(含插2管21床)",
        "立案日期": "90.02",
        "Latitude": "25.0000207",
        "Longitude": "121.5468861"
    },
    {
        "編號": "5",
        "屬性": "公設民營",
        "機構名稱": "臺北市兆如老人安養護中心",
        "負責人": "胡世賢",
        "區域別": "文山區",
        "地址": "臺北市文山區政大里005鄰政大二街129號",
        "電話": "02-86616365",
        "收容對象": "安養",
        "核定收容人數": "189",
        "立案日期": "91.02",
        "Latitude": "24.9889307",
        "Longitude": "121.5842995"
    },
    {
        "編號": "5",
        "屬性": "公設民營",
        "機構名稱": "臺北市兆如老人安養護中心",
        "負責人": "胡世賢",
        "區域別": "文山區",
        "地址": "臺北市文山區政大里005鄰政大二街129號",
        "電話": "02-86616365",
        "收容對象": "養護",
        "核定收容人數": "132(含插2管66床)",
        "立案日期": "91.02",
        "Latitude": "24.9889307",
        "Longitude": "121.5842995"
    },
    {
        "編號": "5",
        "屬性": "公設民營",
        "機構名稱": "臺北市兆如老人安養護中心",
        "負責人": "胡世賢",
        "區域別": "文山區",
        "地址": "臺北市文山區政大里005鄰政大二街129號",
        "電話": "02-86616365",
        "收容對象": "長照",
        "核定收容人數": "132",
        "立案日期": "91.02",
        "Latitude": "24.9889307",
        "Longitude": "121.5842995"
    },
    {
        "編號": "6",
        "屬性": "私立",
        "機構名稱": "財團法人台灣基督教道生院附設臺北市私立道生院老人長期照顧中心(養護型)",
        "負責人": "李正剛",
        "區域別": "北投區",
        "地址": "臺北市北投區秀山里002鄰中和街錫安巷112號1.2樓及地下1樓",
        "電話": "02-28936161",
        "收容對象": "養護",
        "核定收容人數": "88(含插2管43床)",
        "立案日期": "100.01",
        "Latitude": "25.1477248",
        "Longitude": "121.5004801"
    },
    {
        "編號": "7",
        "屬性": "私立",
        "機構名稱": "財團法人臺北市私立愛愛院",
        "負責人": "陳?松",
        "區域別": "萬華區",
        "地址": "臺北市萬華區糖?里006鄰大理街175巷27號",
        "電話": "02-23060493",
        "收容對象": "養護",
        "核定收容人數": "238(含插2管115床)",
        "立案日期": "48.11",
        "Latitude": "25.0345597",
        "Longitude": "121.4955271"
    },
    {
        "編號": "8",
        "屬性": "私立",
        "機構名稱": "財團法人臺北市私立仁愛頤養園",
        "負責人": "陳玉梅",
        "區域別": "內湖區",
        "地址": "臺北市內湖區瑞陽里008鄰文德路 66巷99號1~8樓",
        "電話": "02-26582226",
        "收容對象": "安養",
        "核定收容人數": "45",
        "立案日期": "88.06",
        "Latitude": "25.075909",
        "Longitude": "121.582455"
    },
    {
        "編號": "9",
        "屬性": "私立",
        "機構名稱": "財團法人臺北市私立恆安老人長期照顧中心(長期照護型)",
        "負責人": "胡世賢",
        "區域別": "萬華區",
        "地址": "臺北市萬華區騰雲里004鄰水源路187號",
        "電話": "02-23327973",
        "收容對象": "長照",
        "核定收容人數": "117",
        "立案日期": "83.01",
        "Latitude": "25.0236602",
        "Longitude": "121.510904"
    },
    {
        "編號": "10",
        "屬性": "私立",
        "機構名稱": "財團法人天主教失智老人社會福利基金會附設臺北市私立聖若瑟失智老人養護中心",
        "負責人": "洪山川",
        "區域別": "萬華區",
        "地址": "臺北市萬華區保德里001鄰德昌街125巷11號1~4樓、13號1樓",
        "電話": "02-23046715~6、02-23046602",
        "收容對象": "失智",
        "核定收容人數": "64",
        "立案日期": "90.03",
        "Latitude": "25.0236399",
        "Longitude": "121.4969309"
    },
    {
        "編號": "11",
        "屬性": "私立",
        "機構名稱": "臺北市私立豪門老人長期照顧中心(養護型)",
        "負責人": "張妤安",
        "區域別": "北投區",
        "地址": "臺北市北投區大同里013鄰大業路452巷2號6~9樓",
        "電話": "02-28954492",
        "收容對象": "養護",
        "核定收容人數": "42(含插2管21床)",
        "立案日期": "105.11.16",
        "Latitude": "25.1316729",
        "Longitude": "121.4973149"
    },
    {
        "編號": "12",
        "屬性": "私立",
        "機構名稱": "臺北市私立奇里岸老人長期照顧中心(養護型)",
        "負責人": "張桂英",
        "區域別": "北投區",
        "地址": "臺北市北投區立農里013鄰西安街2段245號1.2樓",
        "電話": "02-28275139",
        "收容對象": "養護",
        "核定收容人數": "36(含插2管18床)",
        "立案日期": "105.06.29",
        "Latitude": "25.1202381",
        "Longitude": "121.5082363"
    },
    {
        "編號": "13",
        "屬性": "私立",
        "機構名稱": "臺北市私立祐心老人長期照顧中心(養護型)",
        "負責人": "黃成德",
        "區域別": "士林區",
        "地址": "臺北市士林區名山里 009鄰至誠路1段305巷3弄14號1-2樓",
        "電話": "02-28310432",
        "收容對象": "養護",
        "核定收容人數": "16(含插2管8床)",
        "立案日期": "97.09",
        "Latitude": "25.1014327",
        "Longitude": "121.5310149"
    },
    {
        "編號": "14",
        "屬性": "私立",
        "機構名稱": "臺北市私立安安老人長期照顧中心(養護型)",
        "負責人": "林姿君",
        "區域別": "北投區",
        "地址": "臺北市北投區奇岩里003鄰公館路194、196號1樓",
        "電話": "02-28953298",
        "收容對象": "養護",
        "核定收容人數": "12(含插2管6床)",
        "立案日期": "97.09",
        "Latitude": "25.1281036",
        "Longitude": "121.5072316"
    },
    {
        "編號": "15",
        "屬性": "私立",
        "機構名稱": "臺北市私立荷園老人長期照顧中心(養護型)",
        "負責人": "徐慶鼎",
        "區域別": "士林區",
        "地址": "臺北市士林區富光里010鄰葫蘆街33號2~3樓",
        "電話": "02-28163696",
        "收容對象": "養護",
        "核定收容人數": "39(含插2管19床)",
        "立案日期": "102.06.03",
        "Latitude": "25.080042",
        "Longitude": "121.5097046"
    },
    {
        "編號": "16",
        "屬性": "私立",
        "機構名稱": "臺北市私立軒儀老人長期照顧中心(養護型)",
        "負責人": "盧嘉富",
        "區域別": "萬華區",
        "地址": "臺北市萬華區華江里028鄰和平西路3段384號1樓",
        "電話": "02-23088661",
        "收容對象": "養護",
        "核定收容人數": "47(含插2管23床)",
        "立案日期": "98.07",
        "Latitude": "25.0352879",
        "Longitude": "121.4911247"
    },
    {
        "編號": "17",
        "屬性": "私立",
        "機構名稱": "臺北市私立景興老人長期照顧中心(養護型)",
        "負責人": "吳清璇",
        "區域別": "文山區",
        "地址": "臺北市文山區景行里021鄰景興路222號3樓",
        "電話": "02-29349412",
        "收容對象": "養護",
        "核定收容人數": "38(含插2管19床)",
        "立案日期": "98.09",
        "Latitude": "24.9909965",
        "Longitude": "121.5434509"
    },
    {
        "編號": "18",
        "屬性": "私立",
        "機構名稱": "臺北市私立吉祥老人長期照顧中心(養護型)",
        "負責人": "黃玉珍",
        "區域別": "文山區",
        "地址": "臺北市文山區木柵里004鄰木柵路3段85巷8弄4-1、4-2號1樓及2、2-1、2-2、4、4-1、4-2號2樓",
        "電話": "02-22343511",
        "收容對象": "養護",
        "核定收容人數": "43(含插2管21床)",
        "立案日期": "98.12",
        "Latitude": "24.9892599",
        "Longitude": "121.56728"
    },
    {
        "編號": "19",
        "屬性": "私立",
        "機構名稱": "臺北市私立龍江老人長期照顧中心(養護型)",
        "負責人": "吳第明",
        "區域別": "中山區",
        "地址": "臺北市中山區力行里007鄰長安東路1段63號4樓",
        "電話": "02-25672208",
        "收容對象": "養護",
        "核定收容人數": "37(含插2管18床)",
        "立案日期": "88.07",
        "Latitude": "25.0487328",
        "Longitude": "121.5272126"
    },
    {
        "編號": "20",
        "屬性": "私立",
        "機構名稱": "臺北市私立唯新尊榮老人長期照顧中心(養護型)",
        "負責人": "劉霈琪",
        "區域別": "大同區",
        "地址": "臺北市大同區建泰里019鄰太原路97巷4、6號",
        "電話": "02-25501118",
        "收容對象": "養護",
        "核定收容人數": "49(含插2管24床)",
        "立案日期": "99.02",
        "Latitude": "25.052117",
        "Longitude": "121.516046"
    },
    {
        "編號": "21",
        "屬性": "私立",
        "機構名稱": "臺北市私立松竹園老人長期照護中心",
        "負責人": "林素滿",
        "區域別": "中山區",
        "地址": "臺北市中山區晴光里013鄰雙城街32巷1號4~5樓",
        "電話": "02-25987802",
        "收容對象": "長照",
        "核定收容人數": "30",
        "立案日期": "94.02",
        "Latitude": "25.066245",
        "Longitude": "121.5239447"
    },
    {
        "編號": "22",
        "屬性": "私立",
        "機構名稱": "臺北市私立美安老人長期照顧中心(養護型)",
        "負責人": "吳米加",
        "區域別": "文山區",
        "地址": "臺北市文山區景慶里001鄰溪口街1巷5號3-4樓",
        "電話": "02-29316388",
        "收容對象": "養護",
        "核定收容人數": "45(含插2管22床)",
        "立案日期": "99.07",
        "Latitude": "24.994002",
        "Longitude": "121.540105"
    },
    {
        "編號": "23",
        "屬性": "私立",
        "機構名稱": "臺北市私立璞園老人長期照顧中心(養護型)",
        "負責人": "黃台生",
        "區域別": "士林區",
        "地址": "臺北市士林區富光里010鄰葫蘆街33號4、5、6樓",
        "電話": "02-28163696",
        "收容對象": "養護",
        "核定收容人數": "46(含插2管23床)",
        "立案日期": "102.06.03",
        "Latitude": "25.080042",
        "Longitude": "121.5097046"
    },
    {
        "編號": "24",
        "屬性": "私立",
        "機構名稱": "臺北市私立三園老人長期照顧中心(養護型)",
        "負責人": "劉偉如",
        "區域別": "文山區",
        "地址": "臺北市文山區景行里002鄰車前路12號3-4樓",
        "電話": "02-29329053",
        "收容對象": "養護",
        "核定收容人數": "48(含插2管24床)",
        "立案日期": "99.1",
        "Latitude": "24.991538",
        "Longitude": "121.540954"
    },
    {
        "編號": "25",
        "屬性": "私立",
        "機構名稱": "臺北市私立景安老人長期照顧中心(養護型)",
        "負責人": "高倪雪",
        "區域別": "文山區",
        "地址": "臺北市文山區景慶里001鄰溪口街1巷5號1~2樓",
        "電話": "02-29325698",
        "收容對象": "養護",
        "核定收容人數": "41(含插2管18床)",
        "立案日期": "99.12",
        "Latitude": "24.994065",
        "Longitude": "121.5407548"
    },
    {
        "編號": "26",
        "屬性": "私立",
        "機構名稱": "臺北市私立敦煌老人長期照顧中心(養護型)",
        "負責人": "林素滿",
        "區域別": "大同區",
        "地址": "臺北市大同區重慶里014鄰敦煌路80巷3號及3-1號1樓",
        "電話": "02-25945133",
        "收容對象": "養護",
        "核定收容人數": "29(含插2管14床)",
        "立案日期": "90.02",
        "Latitude": "25.0748841",
        "Longitude": "121.5174874"
    },
    {
        "編號": "27",
        "屬性": "私立",
        "機構名稱": "臺北市私立松園老人長期照顧中心(養護型)",
        "負責人": "冉筠佩",
        "區域別": "士林區",
        "地址": "臺北市士林區蘭雅里 020鄰德行東路61巷1、2、3號1~2樓",
        "電話": "02-88662097",
        "收容對象": "養護",
        "核定收容人數": "49(含插2管24床)",
        "立案日期": "88.02",
        "Latitude": "25.1078967",
        "Longitude": "121.5282269"
    },
    {
        "編號": "28",
        "屬性": "私立",
        "機構名稱": "臺北市私立文德老人長期照顧中心(養護型)",
        "負責人": "江光輝",
        "區域別": "內湖區",
        "地址": "臺北市內湖區紫陽里011鄰陽光街70-2、70-3、72、72-1號1樓",
        "電話": "02-26581303",
        "收容對象": "養護",
        "核定收容人數": "31(含插2管15床)",
        "立案日期": "94.12",
        "Latitude": "25.0764092",
        "Longitude": "121.5862251"
    },
    {
        "編號": "29",
        "屬性": "私立",
        "機構名稱": "臺北市私立仁家老人長期照顧中心(養護型)",
        "負責人": "陳?榮",
        "區域別": "大同區",
        "地址": "臺北市大同區延平里001鄰甘州街55號5~6樓",
        "電話": "02-25530799",
        "收容對象": "養護",
        "核定收容人數": "49(含插2管24床)",
        "立案日期": "89.05",
        "Latitude": "25.0583933",
        "Longitude": "121.5128951"
    },
    {
        "編號": "30",
        "屬性": "私立",
        "機構名稱": "臺北市私立同德老人長期照顧中心(養護型)",
        "負責人": "李佩芡",
        "區域別": "北投區",
        "地址": "臺北市北投區榮華里004鄰明德路306巷1-7樓",
        "電話": "02-28281328",
        "收容對象": "養護",
        "核定收容人數": "41(含插2管20床)",
        "立案日期": "101.04",
        "Latitude": "25.11068",
        "Longitude": "121.52133"
    },
    {
        "編號": "31",
        "屬性": "私立",
        "機構名稱": "臺北市私立高德老人長期照顧中心(養護型)",
        "負責人": "賴婷媛",
        "區域別": "北投區",
        "地址": "臺北市北投區磺港路156號1~3樓",
        "電話": "02-28982418",
        "收容對象": "養護",
        "核定收容人數": "45(含插2管22床)",
        "立案日期": "101.05.22",
        "Latitude": "25.1287207",
        "Longitude": "121.5030233"
    },
    {
        "編號": "32",
        "屬性": "私立",
        "機構名稱": "臺北市私立大園老人養護所",
        "負責人": "李俊卿",
        "區域別": "中正區",
        "地址": "臺北市中正區三愛里001鄰新生南路1段124之3號1~4樓",
        "電話": "02-33931661",
        "收容對象": "養護",
        "核定收容人數": "34(含插2管17床)",
        "立案日期": "87.08",
        "Latitude": "25.0375304",
        "Longitude": "121.53247"
    },
    {
        "編號": "33",
        "屬性": "私立",
        "機構名稱": "臺北市私立仁泰老人養護所",
        "負責人": "羅貴珍",
        "區域別": "中正區",
        "地址": "臺北市中正區三愛里001鄰連雲街3號1、3樓、3之4號及三愛里001鄰新生南路1段124之3號5樓",
        "電話": "02-33931662",
        "收容對象": "養護",
        "核定收容人數": "31(含插2管15床)",
        "立案日期": "92.08",
        "Latitude": "25.037645",
        "Longitude": "121.5323141"
    },
    {
        "編號": "34",
        "屬性": "私立",
        "機構名稱": "臺北市私立柏安老人養護所",
        "負責人": "黃彥勳",
        "區域別": "士林區",
        "地址": "臺北市士林區蘭雅里 024鄰 中山北路6段290巷52、54號1樓",
        "電話": "02-28333536",
        "收容對象": "養護",
        "核定收容人數": "20(含插2管10床)",
        "立案日期": "88.06",
        "Latitude": "25.1087702",
        "Longitude": "121.5274261"
    },
    {
        "編號": "35",
        "屬性": "私立",
        "機構名稱": "臺北市私立明德老人長期照顧中心(養護型)",
        "負責人": "吳嬌娥",
        "區域別": "中正區",
        "地址": "臺北市中正區永昌里014鄰詔安街220巷2、4號1樓",
        "電話": "02-23090381",
        "收容對象": "養護",
        "核定收容人數": "20(含插2管10床)",
        "立案日期": "89.02",
        "Latitude": "25.0263384",
        "Longitude": "121.5091333"
    },
    {
        "編號": "36",
        "屬性": "私立",
        "機構名稱": "臺北市私立上上老人養護所",
        "負責人": "李惠珍",
        "區域別": "大安區",
        "地址": "臺北市大安區仁慈里009鄰復興南路1段279巷14、16號1樓",
        "電話": "02-27032223",
        "收容對象": "養護",
        "核定收容人數": "15(含插2管7床)",
        "立案日期": "87.09",
        "Latitude": "25.0355037",
        "Longitude": "121.5446439"
    },
    {
        "編號": "37",
        "屬性": "私立",
        "機構名稱": "臺北市私立展欣老人長期照顧中(養護型)",
        "負責人": "林金榮",
        "區域別": "內湖區",
        "地址": "臺北市內湖區寶湖里012鄰成功路2段233、235號2樓",
        "電話": "02-27938677",
        "收容對象": "養護",
        "核定收容人數": "19(含插2管8床)",
        "立案日期": "104.09.14",
        "Latitude": "25.0677204",
        "Longitude": "121.5908846"
    },
    {
        "編號": "38",
        "屬性": "私立",
        "機構名稱": "臺北市私立北投老人長期照顧中心(養護型)",
        "負責人": "許雅惠",
        "區域別": "北投區",
        "地址": "臺北市北投區奇岩里027鄰公館路231巷20號1樓",
        "電話": "02-28937412",
        "收容對象": "養護",
        "核定收容人數": "17(含插2管8床)",
        "立案日期": "88.09",
        "Latitude": "25.126707",
        "Longitude": "121.5092476"
    },
    {
        "編號": "39",
        "屬性": "私立",
        "機構名稱": "臺北市私立湖濱老人長期照顧中心(養護型)",
        "負責人": "葉雲興",
        "區域別": "內湖區",
        "地址": "臺北市內湖區湖濱里010鄰內湖路2段179巷58、60號1樓",
        "電話": "02-27933081",
        "收容對象": "養護",
        "核定收容人數": "18(含插2管9床)",
        "立案日期": "89.02",
        "Latitude": "25.082943",
        "Longitude": "121.586813"
    },
    {
        "編號": "40",
        "屬性": "私立",
        "機構名稱": "臺北市私立祥家老人養護所",
        "負責人": "楊貢祖",
        "區域別": "內湖區",
        "地址": "臺北市內湖區湖濱里026鄰內湖路2段253巷1弄1.3號1-2樓",
        "電話": "02-27922281",
        "收容對象": "養護",
        "核定收容人數": "46(含插2管23床)",
        "立案日期": "87.1",
        "Latitude": "25.082329",
        "Longitude": "121.5897481"
    },
    {
        "編號": "41",
        "屬性": "私立",
        "機構名稱": "臺北市私立仁仁老人長期照顧中心(養護型)",
        "負責人": "王筱璇",
        "區域別": "松山區",
        "地址": "臺北市松山區新聚里003鄰南京東路5段356號2樓",
        "電話": "02-27659900",
        "收容對象": "養護",
        "核定收容人數": "34(含插2管17床)",
        "立案日期": "105.08.11",
        "Latitude": "25.0510176",
        "Longitude": "121.5698296"
    },
    {
        "編號": "42",
        "屬性": "私立",
        "機構名稱": "臺北市私立賢暉老人長期照顧中心(養護型)",
        "負責人": "蔡玉真",
        "區域別": "北投區",
        "地址": "臺北市北投區永欣里016鄰石牌路2段315巷34弄14、16號1樓",
        "電話": "02-28710770",
        "收容對象": "養護",
        "核定收容人數": "18(含插2管9床)",
        "立案日期": "91.05",
        "Latitude": "25.1232816",
        "Longitude": "121.5231314"
    },
    {
        "編號": "43",
        "屬性": "私立",
        "機構名稱": "臺北市私立童音老人長期照顧中心(養護型)",
        "負責人": "林淑容",
        "區域別": "內湖區",
        "地址": "臺北市內湖區葫洲里004鄰民權東路6段280巷19弄1、3、5、7號1樓",
        "電話": "02-26345131、02-26345132",
        "收容對象": "養護",
        "核定收容人數": "32(含插2管16床)",
        "立案日期": "89.03",
        "Latitude": "25.0714758",
        "Longitude": "121.6049402"
    },
    {
        "編號": "43",
        "屬性": "私立",
        "機構名稱": "臺北市私立童音老人長期照顧中心(養護型)",
        "負責人": "林淑容",
        "區域別": "內湖區",
        "地址": "臺北市內湖區葫洲里004鄰民權東路6段280巷19弄1、3、5、7號1樓",
        "電話": "02-26345131、02-26345132",
        "收容對象": "長照",
        "核定收容人數": "5",
        "立案日期": "89.03",
        "Latitude": "25.0714758",
        "Longitude": "121.6049402"
    },
    {
        "編號": "44",
        "屬性": "私立",
        "機構名稱": "臺北市私立佑安老人養護所",
        "負責人": "陳美彥",
        "區域別": "北投區",
        "地址": "臺北市北投區永和里006鄰行義路105號1~2樓",
        "電話": "02-28747739",
        "收容對象": "養護",
        "核定收容人數": "41(含插2管20床)",
        "立案日期": "88.09",
        "Latitude": "25.1240896",
        "Longitude": "121.5258133"
    },
    {
        "編號": "45",
        "屬性": "私立",
        "機構名稱": "臺北市私立聖心老人養護所",
        "負責人": "陸秀真",
        "區域別": "北投區",
        "地址": "臺北市北投區稻香里0134稻香路321號1樓",
        "電話": "02-28913890",
        "收容對象": "養護",
        "核定收容人數": "18(含插2管9床)",
        "立案日期": "88.08",
        "Latitude": "25.1429013",
        "Longitude": "121.486781"
    },
    {
        "編號": "46",
        "屬性": "私立",
        "機構名稱": "臺北市私立銀髮族老人養護所",
        "負責人": "簡美麗",
        "區域別": "內湖區",
        "地址": "臺北市內湖區成功路2段488號2~5樓、490號2樓、4樓",
        "電話": "02-27926006",
        "收容對象": "養護",
        "核定收容人數": "46(含插2管23床)",
        "立案日期": "90.08",
        "Latitude": "25.0681054",
        "Longitude": "121.5906632"
    },
    {
        "編號": "47",
        "屬性": "私立",
        "機構名稱": "臺北市私立陽明山老人長期照顧中心(養護型)",
        "負責人": "王學賢",
        "區域別": "北投區",
        "地址": "臺北市北投區湖山里006鄰紗帽路116號",
        "電話": "02-28615006",
        "收容對象": "養護",
        "核定收容人數": "36(含插2管18床)",
        "立案日期": "91.01",
        "Latitude": "25.1509129",
        "Longitude": "121.5472149"
    },
    {
        "編號": "48",
        "屬性": "私立",
        "機構名稱": "臺北市私立慧光老人養護所",
        "負責人": "康玉燕",
        "區域別": "大同區",
        "地址": "臺北市大同區星明里 014鄰寧夏路32 號5樓",
        "電話": "02-25582275",
        "收容對象": "養護",
        "核定收容人數": "40(含插2管20床)",
        "立案日期": "92.1",
        "Latitude": "25.0559543",
        "Longitude": "121.5151416"
    },
    {
        "編號": "49",
        "屬性": "私立",
        "機構名稱": "臺北市私立宏安老人長期照顧中心(養護型)",
        "負責人": "胡禎育",
        "區域別": "士林區",
        "地址": "臺北市士林區重慶北路4段162號1-4樓",
        "電話": "02-28968989",
        "收容對象": "養護",
        "核定收容人數": "33(含插2管16床)",
        "立案日期": "88.12",
        "Latitude": "25.084543",
        "Longitude": "121.511942"
    },
    {
        "編號": "50",
        "屬性": "私立",
        "機構名稱": "臺北市私立安欣老人長期照顧中心(養護型)",
        "負責人": "汪淑珍",
        "區域別": "內湖區",
        "地址": "臺北市內湖區葫洲里011鄰民權東路6段296巷83、85號1樓",
        "電話": "02-26329909",
        "收容對象": "養護",
        "核定收容人數": "18(含插2管9床)",
        "立案日期": "103.07",
        "Latitude": "25.0707751",
        "Longitude": "121.6078677"
    },
    {
        "編號": "51",
        "屬性": "私立",
        "機構名稱": "臺北市私立義行老人長期照顧中心(養護型)",
        "負責人": "林萬知",
        "區域別": "北投區",
        "地址": "臺北市北投區永和里001鄰石牌路2段357巷1號4~6樓",
        "電話": "02-28767880",
        "收容對象": "養護",
        "核定收容人數": "49(含插2管24床)",
        "立案日期": "88.11",
        "Latitude": "25.123661",
        "Longitude": "121.524866"
    },
    {
        "編號": "52",
        "屬性": "私立",
        "機構名稱": "臺北市私立天下知老人養護所",
        "負責人": "張芳榮",
        "區域別": "北投區",
        "地址": "臺北市北投區關渡里003鄰關渡路62之1號1樓",
        "電話": "02-28582701",
        "收容對象": "養護",
        "核定收容人數": "26(含插2管13床)",
        "立案日期": "88.01",
        "Latitude": "25.119662",
        "Longitude": "121.468821"
    },
    {
        "編號": "53",
        "屬性": "私立",
        "機構名稱": "臺北市私立康寧老人長期照顧中心(養護型)",
        "負責人": "林溦",
        "區域別": "大安區",
        "地址": "臺北市大安區光信里020鄰仁愛路4段300巷20弄15號2樓、17號2樓",
        "電話": "02-27053835",
        "收容對象": "養護",
        "核定收容人數": "30(含插2管15床)",
        "立案日期": "104.06",
        "Latitude": "25.0367051",
        "Longitude": "121.554503"
    },
    {
        "編號": "54",
        "屬性": "私立",
        "機構名稱": "臺北市私立健全老人長期照顧中心(養護型)",
        "負責人": "游祥祺 ",
        "區域別": "大安區",
        "地址": "臺北市大安區錦華里001鄰金山南路2段152號2、3、5、6樓",
        "電話": "02-23943265~6",
        "收容對象": "養護",
        "核定收容人數": "38(含插2管19床)",
        "立案日期": "105.08.30",
        "Latitude": "25.0280958",
        "Longitude": "121.5259424"
    },
    {
        "編號": "54",
        "屬性": "私立",
        "機構名稱": "臺北市私立健全老人長期照顧中心(養護型)",
        "負責人": "游祥祺 ",
        "區域別": "大安區",
        "地址": "臺北市大安區錦華里001鄰金山南路2段152號2、3、5、6樓",
        "電話": "02-23943265~6",
        "收容對象": "長照",
        "核定收容人數": "9",
        "立案日期": "105.08.30",
        "Latitude": "25.0280958",
        "Longitude": "121.5259424"
    },
    {
        "編號": "55",
        "屬性": "私立",
        "機構名稱": "臺北市私立松瑞園老人長期照顧中心(養護型)",
        "負責人": "劉台山",
        "區域別": "中山區",
        "地址": "臺北市中山區晴光里013鄰雙城街32巷1號1~3樓",
        "電話": "02-25968222",
        "收容對象": "養護",
        "核定收容人數": "49(含插2管24床)",
        "立案日期": "93.08",
        "Latitude": "25.066245",
        "Longitude": "121.5239447"
    },
    {
        "編號": "56",
        "屬性": "私立",
        "機構名稱": "臺北市私立尊暉老人長期照顧中心(養護型)",
        "負責人": "任棟平",
        "區域別": "北投區",
        "地址": "臺北市北投區永欣里017鄰石牌路2段343巷17號1~2樓",
        "電話": "02-28761997",
        "收容對象": "養護",
        "核定收容人數": "26(含插2管13床)",
        "立案日期": "103.03",
        "Latitude": "25.1231392",
        "Longitude": "121.5246335"
    },
    {
        "編號": "57",
        "屬性": "私立",
        "機構名稱": "臺北市私立榮祥老人長期照顧中心(養護型)",
        "負責人": "蔡汶儒",
        "區域別": "北投區",
        "地址": "臺北市北投區文林里019鄰文林北路166巷5弄2號1~2樓、4號1樓",
        "電話": "02-28213709",
        "收容對象": "養護",
        "核定收容人數": "34(含插2管17床)",
        "立案日期": "88.09",
        "Latitude": "25.107155",
        "Longitude": "121.516262"
    },
    {
        "編號": "58",
        "屬性": "私立",
        "機構名稱": "臺北市私立嘉恩老人長期照顧中心(養護型)",
        "負責人": "高永琴",
        "區域別": "大安區",
        "地址": "臺北市大安區黎孝里008鄰安居街27號4、6樓及29號4、5樓",
        "電話": "02-27371330",
        "收容對象": "養護",
        "核定收容人數": "43(含插2管21床)",
        "立案日期": "88.06",
        "Latitude": "25.0205622",
        "Longitude": "121.5546301"
    },
    {
        "編號": "59",
        "屬性": "私立",
        "機構名稱": "臺北市私立松青園老人養護所",
        "負責人": "李秋龍",
        "區域別": "中山區",
        "地址": "臺北市中山區民安里021鄰民生西路30號2樓、2樓之1~4",
        "電話": "02-25119695、02-25110903",
        "收容對象": "養護",
        "核定收容人數": "29(含插2管14床)",
        "立案日期": "89.02",
        "Latitude": "25.0576741",
        "Longitude": "121.52181"
    },
    {
        "編號": "60",
        "屬性": "私立",
        "機構名稱": "臺北市私立怡靜老人長期照顧中心(養護型)",
        "負責人": "林家弘",
        "區域別": "北投區",
        "地址": "臺北市北投區吉利里002鄰致遠二路96巷3弄1、3號1樓",
        "電話": "02-28200437",
        "收容對象": "養護",
        "核定收容人數": "23(含插2管11床)",
        "立案日期": "104.04",
        "Latitude": "25.1168888",
        "Longitude": "121.5128094"
    },
    {
        "編號": "61",
        "屬性": "私立",
        "機構名稱": "臺北市私立恩典之家老人長期照顧中心(養護型)",
        "負責人": "李政勳",
        "區域別": "中山區",
        "地址": "臺北市中山區集英里006鄰中山北路2段96巷19號3樓",
        "電話": "02-25365888",
        "收容對象": "養護",
        "核定收容人數": "27(含插2管13床)",
        "立案日期": "93.07",
        "Latitude": "25.0598972",
        "Longitude": "121.5219218"
    },
    {
        "編號": "62",
        "屬性": "私立",
        "機構名稱": "臺北市私立貴族老人長期照顧中心(養護型)",
        "負責人": "桑予群",
        "區域別": "北投區",
        "地址": "臺北市北投區大同里013鄰大業路452巷2號2~5樓",
        "電話": "02-28965555",
        "收容對象": "養護",
        "核定收容人數": "42(含插2管21床)",
        "立案日期": "94.12",
        "Latitude": "25.1336416",
        "Longitude": "121.4953838"
    },
    {
        "編號": "63",
        "屬性": "私立",
        "機構名稱": "臺北市私立晉安老人長期照顧中心(養護型)",
        "負責人": "吳世均",
        "區域別": "大同區",
        "地址": "臺北市大同區至聖里032鄰重慶北路3段175、177號1~4樓",
        "電話": "02-25982301、02-25982401",
        "收容對象": "養護",
        "核定收容人數": "49(含插2管24床)",
        "立案日期": "96.11",
        "Latitude": "25.0690919",
        "Longitude": "121.513997"
    },
    {
        "編號": "64",
        "屬性": "私立",
        "機構名稱": "臺北市私立建興老人長期照顧中心(養護型)",
        "負責人": "黃政義",
        "區域別": "大同區",
        "地址": "臺北市大同區延平里001鄰甘州街55號2樓",
        "電話": "02-25520199",
        "收容對象": "養護",
        "核定收容人數": "31(含插2管15床)",
        "立案日期": "94.04",
        "Latitude": "25.0599599",
        "Longitude": "121.5128639"
    },
    {
        "編號": "65",
        "屬性": "私立",
        "機構名稱": "臺北市私立全民老人長期照顧中心(養護型)",
        "負責人": "陳麗瑛",
        "區域別": "北投區",
        "地址": "臺北市北投區永欣里013鄰石牌路2段317號1~2樓",
        "電話": "02-28711625、02-28316666",
        "收容對象": "養護",
        "核定收容人數": "24(含插2管12床)",
        "立案日期": "88.06",
        "Latitude": "25.1218157",
        "Longitude": "121.5233206"
    },
    {
        "編號": "66",
        "屬性": "私立",
        "機構名稱": "臺北市私立倚青園老人長期照顧中心(養護型)",
        "負責人": "郭梅玉",
        "區域別": "北投區",
        "地址": "臺北市北投區永明里008鄰義理街63巷4弄7、11之1~3號1樓",
        "電話": "02-28283533",
        "收容對象": "養護",
        "核定收容人數": "31(含插2管15床)",
        "立案日期": "89.02",
        "Latitude": "25.1180859",
        "Longitude": "121.5152459"
    },
    {
        "編號": "67",
        "屬性": "私立",
        "機構名稱": "臺北市私立慈安老人長期照顧中心(養護型)",
        "負責人": "蔡淑芬",
        "區域別": "文山區",
        "地址": "臺北市文山區萬有里001鄰興隆路1段2、4號1~4樓",
        "電話": "02-29337745",
        "收容對象": "養護",
        "核定收容人數": "47(含插2管23床)",
        "立案日期": "87.08",
        "Latitude": "25.0011947",
        "Longitude": "121.5422218"
    },
    {
        "編號": "68",
        "屬性": "私立",
        "機構名稱": "臺北市私立博愛老人長期照顧中心(養護型)",
        "負責人": "李美華",
        "區域別": "中正區",
        "地址": "臺北市中正區富水里001鄰汀州路3段56號2樓",
        "電話": "02-23671050、02-23671819",
        "收容對象": "養護",
        "核定收容人數": "41(含插2管20床)",
        "立案日期": "89.04",
        "Latitude": "25.015778",
        "Longitude": "121.530931"
    },
    {
        "編號": "69",
        "屬性": "私立",
        "機構名稱": "臺北市私立建民老人長期照顧中心(養護型)",
        "負責人": "曹寧",
        "區域別": "北投區",
        "地址": "臺北市北投區文林里019鄰建民路22、24、26、26之1號1樓",
        "電話": "02-28250799",
        "收容對象": "養護",
        "核定收容人數": "34(含插2管17床)",
        "立案日期": "88.1",
        "Latitude": "25.10747",
        "Longitude": "121.5164847"
    },
    {
        "編號": "70",
        "屬性": "私立",
        "機構名稱": "臺北市私立華安老人長期照護中心",
        "負責人": "葉錦珠",
        "區域別": "大安區",
        "地址": "臺北市大安區華聲里007鄰光復南路116巷1、3、5號5樓及3號6樓",
        "電話": "02-27717172轉60061、60071",
        "收容對象": "長照",
        "核定收容人數": "20",
        "立案日期": "102.11",
        "Latitude": "25.0431041",
        "Longitude": "121.5568209"
    },
    {
        "編號": "71",
        "屬性": "私立",
        "機構名稱": "臺北市私立福安老人長期照顧中心(養護型)",
        "負責人": "顧致德",
        "區域別": "南港區",
        "地址": "臺北市南港區萬福里 007鄰 玉成街140巷21、23號2樓",
        "電話": "02-27850598",
        "收容對象": "養護",
        "核定收容人數": "20(含插2管10床)",
        "立案日期": "88.01",
        "Latitude": "25.043969",
        "Longitude": "121.582763"
    },
    {
        "編號": "72",
        "屬性": "私立",
        "機構名稱": "臺北市私立仁群老人養護所",
        "負責人": "朱偉仁",
        "區域別": "中山區",
        "地址": "臺北市中山區下埤里019鄰民族東路512巷14號1~2樓、16號2樓",
        "電話": "02-25013369",
        "收容對象": "養護",
        "核定收容人數": "48(含插2管24床)",
        "立案日期": "88.11",
        "Latitude": "25.0673077",
        "Longitude": "121.5418882"
    },
    {
        "編號": "73",
        "屬性": "私立",
        "機構名稱": "臺北市私立群仁老人養護所",
        "負責人": "朱偉仁",
        "區域別": "中山區",
        "地址": "臺北市中山區下埤里019鄰民族東路512巷14號3~5樓",
        "電話": "02-25010048",
        "收容對象": "養護",
        "核定收容人數": "42(含插2管21床)",
        "立案日期": "95.04",
        "Latitude": "25.067629",
        "Longitude": "121.542198"
    },
    {
        "編號": "74",
        "屬性": "私立",
        "機構名稱": "臺北市私立新常安老人長期照顧中心(養護型)",
        "負責人": "龍建旭",
        "區域別": "大安區",
        "地址": "臺北市大安區黎孝里006鄰安居街46巷14號1~3樓及芳和里 013鄰 和平東路3段228巷39號2樓",
        "電話": "02-23775448",
        "收容對象": "養護",
        "核定收容人數": "39(含插2管19床)",
        "立案日期": "105.12.26",
        "Latitude": "25.0431041",
        "Longitude": "121.5568209"
    },
    {
        "編號": "75",
        "屬性": "私立",
        "機構名稱": "臺北市私立台大老人長期照顧中心(養護型)",
        "負責人": "鄭淑卿",
        "區域別": "松山區",
        "地址": "臺北市松山區仁愛里013鄰敦化南路1段7號4樓之1",
        "電話": "02-25792816",
        "收容對象": "養護",
        "核定收容人數": "24(含插2管12床)",
        "立案日期": "89.12",
        "Latitude": "25.0469382",
        "Longitude": "121.5493214"
    },
    {
        "編號": "76",
        "屬性": "私立",
        "機構名稱": "臺北市私立松湛園老人養護所",
        "負責人": "李秋龍",
        "區域別": "中山區",
        "地址": "臺北市中山區聚盛里003鄰錦州街4巷1號2樓、2樓之1",
        "電話": "02-25652281",
        "收容對象": "養護",
        "核定收容人數": "37(含插2管18床)",
        "立案日期": "93.05",
        "Latitude": "25.0599388",
        "Longitude": "121.5235869"
    },
    {
        "編號": "77",
        "屬性": "私立",
        "機構名稱": "臺北市私立長泰老人長期照顧中心(養護型)",
        "負責人": "何素娥",
        "區域別": "信義區",
        "地址": "臺北市信義區雙和里011鄰吳興街284巷18弄4號1樓",
        "電話": "02-27372007",
        "收容對象": "養護",
        "核定收容人數": "9(含插2管4床)",
        "立案日期": "105.09.02",
        "Latitude": "25.024663",
        "Longitude": "121.563504"
    },
    {
        "編號": "78",
        "屬性": "私立",
        "機構名稱": "臺北市私立祇福老人養護所",
        "負責人": "黃潮琴",
        "區域別": "士林區",
        "地址": "臺北市士林區三玉里016鄰忠誠路2段10巷11、13號1~2樓",
        "電話": "02-28317713",
        "收容對象": "養護",
        "核定收容人數": "39(含插2管19床)",
        "立案日期": "89.11",
        "Latitude": "25.1088495",
        "Longitude": "121.5293505"
    },
    {
        "編號": "79",
        "屬性": "私立",
        "機構名稱": "臺北市私立一心老人長期照顧中心(養護型)",
        "負責人": "林哲弘",
        "區域別": "中正區",
        "地址": "臺北市中正區梅花里009鄰紹興北街31巷19號1~3樓",
        "電話": "02-33932043",
        "收容對象": "養護",
        "核定收容人數": "41(含插2管20床)",
        "立案日期": "88.1",
        "Latitude": "25.0451394",
        "Longitude": "121.5255991"
    },
    {
        "編號": "80",
        "屬性": "私立",
        "機構名稱": "臺北市私立群英老人長期照顧中心(養護型)",
        "負責人": "鄭淑芬",
        "區域別": "松山區",
        "地址": "臺北市松山區仁愛里013鄰敦化南路1段7號4樓",
        "電話": "02-25791400",
        "收容對象": "養護",
        "核定收容人數": "24(含插2管12床)",
        "立案日期": "93.06",
        "Latitude": "25.0469382",
        "Longitude": "121.5493214"
    },
    {
        "編號": "81",
        "屬性": "私立",
        "機構名稱": "臺北市私立行義老人長期照顧中心(養護型)",
        "負責人": "林萬知",
        "區域別": "北投區",
        "地址": "臺北市北投區永和里001鄰石牌路2段357巷1號1~3樓",
        "電話": "02-28729599",
        "收容對象": "養護",
        "核定收容人數": "49(含插2管24床)",
        "立案日期": "95.09",
        "Latitude": "25.123661",
        "Longitude": "121.524866"
    },
    {
        "編號": "82",
        "屬性": "私立",
        "機構名稱": "臺北市私立福全老人養護所",
        "負責人": "林盛文",
        "區域別": "中山區",
        "地址": "臺北市中山區新福里004鄰松江路374、380、382號4樓",
        "電話": "02-25982507",
        "收容對象": "養護",
        "核定收容人數": "28(含插2管14床)",
        "立案日期": "96.02",
        "Latitude": "25.0631437",
        "Longitude": "121.5329543"
    },
    {
        "編號": "83",
        "屬性": "私立",
        "機構名稱": "臺北市私立全家老人長期照顧中心(養護型)",
        "負責人": "陳立德",
        "區域別": "北投區",
        "地址": "臺北市北投區永和里007鄰行義路96巷1號1~2樓",
        "電話": "02-28761692",
        "收容對象": "養護",
        "核定收容人數": "29(含插2管14床)",
        "立案日期": "90.04",
        "Latitude": "25.12668",
        "Longitude": "121.528857"
    },
    {
        "編號": "84",
        "屬性": "私立",
        "機構名稱": "臺北市私立長樂老人長期照顧中心(養護型)",
        "負責人": "林哲弘",
        "區域別": "中正區",
        "地址": "臺北市中正區梅花里009鄰紹興北街31巷23號1~3樓",
        "電話": "02-33932045",
        "收容對象": "養護",
        "核定收容人數": "40(含插2管20床)",
        "立案日期": "105.05.20",
        "Latitude": "25.0451394",
        "Longitude": "121.5255991"
    },
    {
        "編號": "85",
        "屬性": "私立",
        "機構名稱": "臺北市私立天恩老人長期照顧中心(養護型)",
        "負責人": "薛?娥",
        "區域別": "大安區",
        "地址": "臺北市大安區龍門里008鄰新生南路3段7-4號、9-4號、9-5號",
        "電話": "02-23620457、02-23634382",
        "收容對象": "養護",
        "核定收容人數": "48(含插2管24床)",
        "立案日期": "89.05",
        "Latitude": "25.0253239",
        "Longitude": "121.535"
    },
    {
        "編號": "86",
        "屬性": "私立",
        "機構名稱": "臺北市私立中山老人長期照顧中心(養護型)",
        "負責人": "趙芬蘭",
        "區域別": "萬華區",
        "地址": "臺北市萬華區菜園里001鄰峨眉街124號、124之1號1樓",
        "電話": "02-23759590",
        "收容對象": "養護",
        "核定收容人數": "26(含插2管13床)",
        "立案日期": "105.08.02",
        "Latitude": "25.044603",
        "Longitude": "121.502036"
    },
    {
        "編號": "87",
        "屬性": "私立",
        "機構名稱": "臺北市私立安立老人長期照顧中心(養護型)",
        "負責人": "吳麗雪",
        "區域別": "北投區",
        "地址": "臺北市北投區石牌里008鄰致遠一路1段124巷23號1~2樓",
        "電話": "02-28208277",
        "收容對象": "養護",
        "核定收容人數": "15(含插2管7床)",
        "立案日期": "89.02",
        "Latitude": "25.1103807",
        "Longitude": "121.5157497"
    },
    {
        "編號": "88",
        "屬性": "私立",
        "機構名稱": "臺北市私立瑞安老人長期照顧中(養護型)",
        "負責人": "董曉璇",
        "區域別": "內湖區",
        "地址": "臺北市內湖區紫陽里002鄰成功路3段88、90、92號2樓、76巷9號2樓",
        "電話": "02-27925292",
        "收容對象": "養護",
        "核定收容人數": "33(含插2管16床)",
        "立案日期": "104.07.24",
        "Latitude": "25.0787007",
        "Longitude": "121.5892284"
    },
    {
        "編號": "89",
        "屬性": "私立",
        "機構名稱": "臺北市私立慧華老人長期照顧中心(養護型)",
        "負責人": "王輝鴻",
        "區域別": "文山區",
        "地址": "臺北市文山區興隆路2段154巷11號1樓",
        "電話": "02-29356272",
        "收容對象": "養護",
        "核定收容人數": "30(含插2管15床)",
        "立案日期": "102.03",
        "Latitude": "25.0008799",
        "Longitude": "121.5516605"
    },
    {
        "編號": "90",
        "屬性": "私立",
        "機構名稱": "臺北市私立建順老人長期照顧中心(養護型)",
        "負責人": "黃政義",
        "區域別": "大同區",
        "地址": "臺北市大同區延平里001鄰甘州街55號3樓",
        "電話": "02-25520199",
        "收容對象": "養護",
        "核定收容人數": "30(含插2管15床)",
        "立案日期": "88.12",
        "Latitude": "25.059955",
        "Longitude": "121.512877"
    },
    {
        "編號": "91",
        "屬性": "私立",
        "機構名稱": "臺北市私立永安老人養護所",
        "負責人": "莊增瀧",
        "區域別": "大同區",
        "地址": "臺北市大同區老師里008鄰重慶北路3段284號2~4樓、286號1~4樓",
        "電話": "02-25980197",
        "收容對象": "養護",
        "核定收容人數": "49(含插2管24床)",
        "立案日期": "89.07",
        "Latitude": "25.0740725",
        "Longitude": "121.5134044"
    },
    {
        "編號": "92",
        "屬性": "私立",
        "機構名稱": "臺北市私立心慈老人養護所",
        "負責人": "黃林秋紅",
        "區域別": "文山區",
        "地址": "臺北市文山區興業里022鄰辛亥路5段120-1號1~4樓",
        "電話": "02-29314730",
        "收容對象": "養護",
        "核定收容人數": "22(含插2管11床)",
        "立案日期": "92.04",
        "Latitude": "24.997484",
        "Longitude": "121.5521388"
    },
    {
        "編號": "93",
        "屬性": "私立",
        "機構名稱": "臺北市私立蓮馨老人長期照顧中心(養護型)",
        "負責人": "王淑琴",
        "區域別": "文山區",
        "地址": "臺北市文山區萬和街6號8樓",
        "電話": "02-82300373",
        "收容對象": "養護",
        "核定收容人數": "29(含插2管14床)",
        "立案日期": "103.02",
        "Latitude": "25.0019455",
        "Longitude": "121.5673877"
    },
    {
        "編號": "94",
        "屬性": "私立",
        "機構名稱": "臺北市私立永青老人養護暨長期照護中心",
        "負責人": "李沛諭",
        "區域別": "士林區",
        "地址": "臺北市士林區天壽里003鄰中山北路6段427巷8號1~4樓",
        "電話": "02-28761908",
        "收容對象": "養護",
        "核定收容人數": "18(含插2管9床)",
        "立案日期": "92.09",
        "Latitude": "25.1142467",
        "Longitude": "121.5265191"
    },
    {
        "編號": "94",
        "屬性": "私立",
        "機構名稱": "臺北市私立永青老人養護暨長期照護中心",
        "負責人": "李沛諭",
        "區域別": "士林區",
        "地址": "臺北市士林區天壽里003鄰中山北路6段427巷8號1~4樓",
        "電話": "02-28761908",
        "收容對象": "長照",
        "核定收容人數": "13",
        "立案日期": "92.09",
        "Latitude": "25.1142467",
        "Longitude": "121.5265191"
    },
    {
        "編號": "95",
        "屬性": "私立",
        "機構名稱": "臺北市私立倚青苑老人養護所",
        "負責人": "郭梅玉",
        "區域別": "信義區",
        "地址": "臺北市信義區永春里002鄰中坡北路21號1~2樓、23號2樓",
        "電話": "02-27477232",
        "收容對象": "養護",
        "核定收容人數": "28(含插2管14床)",
        "立案日期": "89.06",
        "Latitude": "25.044336",
        "Longitude": "121.580786"
    },
    {
        "編號": "96",
        "屬性": "私立",
        "機構名稱": "臺北市私立祥暉老人養護所",
        "負責人": "吳茂仁",
        "區域別": "北投區",
        "地址": "臺北市北投區永欣里014鄰石牌路2段315巷16弄2、2-1號1樓",
        "電話": "02-28710793",
        "收容對象": "養護",
        "核定收容人數": "24(含插2管12床)",
        "立案日期": "88.11",
        "Latitude": "25.1227796",
        "Longitude": "121.5221762"
    },
    {
        "編號": "97",
        "屬性": "私立",
        "機構名稱": "臺北市私立榮健老人養護所",
        "負責人": "林慶松",
        "區域別": "北投區",
        "地址": "臺北市北投區建民里016鄰文林北路94巷5弄13號1~2樓、15號2樓",
        "電話": "02-28216113",
        "收容對象": "養護",
        "核定收容人數": "46(含插2管23床)",
        "立案日期": "88.12",
        "Latitude": "25.1056999",
        "Longitude": "121.5188619"
    },
    {
        "編號": "98",
        "屬性": "私立",
        "機構名稱": "臺北市私立法泉老人長期照顧中心(養護型)",
        "負責人": "陳慧紅",
        "區域別": "中山區",
        "地址": "臺北市中山區朱崙里012鄰八德路2段251號2樓",
        "電話": "02-87731706",
        "收容對象": "養護",
        "核定收容人數": "39(含插2管19床)",
        "立案日期": "88.11",
        "Latitude": "25.0470186",
        "Longitude": "121.5410962"
    },
    {
        "編號": "99",
        "屬性": "私立",
        "機構名稱": "臺北市私立慧誠老人長期照顧中心(養護型)",
        "負責人": "劉昱光",
        "區域別": "文山區",
        "地址": "臺北市文山區木柵里025鄰木柵路2段163、165號1~5樓",
        "電話": "02-29392222",
        "收容對象": "養護",
        "核定收容人數": "48(含插2管24床)",
        "立案日期": "102.12",
        "Latitude": "24.9892432",
        "Longitude": "121.5631755"
    },
    {
        "編號": "100",
        "屬性": "私立",
        "機構名稱": "臺北市私立康庭老人養護所",
        "負責人": "黃美祺",
        "區域別": "信義區",
        "地址": "臺北市信義區安康里017鄰信義路6段15巷16號1樓",
        "電話": "02-23460684",
        "收容對象": "養護",
        "核定收容人數": "29(含插2管14床)",
        "立案日期": "88.07",
        "Latitude": "25.0352608",
        "Longitude": "121.5752978"
    },
    {
        "編號": "101",
        "屬性": "私立",
        "機構名稱": "臺北市私立台欣老人長期照顧中心(養護型)",
        "負責人": "沈朝伍",
        "區域別": "大同區",
        "地址": "臺北市大同區國順里008鄰延平北路3段4號2樓",
        "電話": "02-25860098",
        "收容對象": "養護",
        "核定收容人數": "47(含插2管23床)",
        "立案日期": "89.11",
        "Latitude": "25.0665291",
        "Longitude": "121.5104167"
    },
    {
        "編號": "102",
        "屬性": "私立",
        "機構名稱": "臺北市私立崇順老人養護所",
        "負責人": "鍾秋月",
        "區域別": "北投區",
        "地址": "臺北市北投區關渡里013鄰知行路54號1~2樓",
        "電話": "02-28581979",
        "收容對象": "養護",
        "核定收容人數": "27(含插2管13床)",
        "立案日期": "88.09",
        "Latitude": "25.1180269",
        "Longitude": "121.465318"
    },
    {
        "編號": "103",
        "屬性": "私立",
        "機構名稱": "臺北市私立葉爸爸老人養護所",
        "負責人": "葉榮貴",
        "區域別": "萬華區",
        "地址": "臺北市萬華區錦德里012鄰西園路2段243之14號1~4樓",
        "電話": "02-23329985",
        "收容對象": "養護",
        "核定收容人數": "31(含插2管15床)",
        "立案日期": "89.01",
        "Latitude": "25.0262689",
        "Longitude": "121.4933374"
    },
    {
        "編號": "104",
        "屬性": "私立",
        "機構名稱": "臺北市私立葉媽媽老人養護所",
        "負責人": "葉許末江",
        "區域別": "萬華區",
        "地址": "臺北市萬華區錦德里012鄰西園路2段243之13號1~4樓",
        "電話": "02-23329986",
        "收容對象": "養護",
        "核定收容人數": "30(含插2管15床)",
        "立案日期": "93.03",
        "Latitude": "25.0262779",
        "Longitude": "121.4933467"
    },
    {
        "編號": "105",
        "屬性": "私立",
        "機構名稱": "臺北市私立康壯老人長期照顧中心(養護型)",
        "負責人": "李碧欗",
        "區域別": "松山區",
        "地址": "臺北市松山區吉祥里001鄰八德路4段203、205號1、2樓",
        "電話": "02-27686697",
        "收容對象": "養護",
        "核定收容人數": "49(含插2管24床)",
        "立案日期": "103.05",
        "Latitude": "25.0489924",
        "Longitude": "121.5640906"
    },
    {
        "編號": "106",
        "屬性": "私立",
        "機構名稱": "臺北市私立德寶老人養護所",
        "負責人": "張麗美",
        "區域別": "大同區",
        "地址": "臺北市大同區建明里002鄰長安西路78巷4弄11號1~4樓",
        "電話": "02-25522062",
        "收容對象": "養護",
        "核定收容人數": "28(含插2管14床)",
        "立案日期": "89.06",
        "Latitude": "25.0499346",
        "Longitude": "121.519149"
    },
    {
        "編號": "107",
        "屬性": "私立",
        "機構名稱": "臺北市私立萬芳老人長期照顧中心(養護型)",
        "負責人": "陳松胤",
        "區域別": "文山區",
        "地址": "臺北市文山區萬和街8號3樓",
        "電話": "02-22303000",
        "收容對象": "養護",
        "核定收容人數": "48(含插2管24床)",
        "立案日期": "105.01",
        "Latitude": "25.0019877",
        "Longitude": "121.5675898"
    },
    {
        "編號": "108",
        "屬性": "私立",
        "機構名稱": "臺北市私立賢喜老人長期照顧中心(養護型)",
        "負責人": "林佩樺",
        "區域別": "中山區",
        "地址": "臺北市中山區松江路374、380、382號7樓",
        "電話": "02-25919087",
        "收容對象": "養護",
        "核定收容人數": "23(含插2管11床)",
        "立案日期": "105.03",
        "Latitude": "25.0631437",
        "Longitude": "121.5329543"
    },
    {
        "編號": "109",
        "屬性": "私立",
        "機構名稱": "臺北市私立天玉老人長期照顧中心(長期照護型)",
        "負責人": "林海珠",
        "區域別": "士林區",
        "地址": "臺北市士林區天玉街38巷18弄18號1-6樓",
        "電話": "02-22673230",
        "收容對象": "長照",
        "核定收容人數": "39",
        "立案日期": "105.04.12",
        "Latitude": "25.1200708",
        "Longitude": "121.5303437"
    }
]