[
    {
        "編號": "1",
        "屬性": "私立",
        "機構名稱": "財團法人台灣省私立桃園仁愛之家附設苗栗養護中心",
        "負責人": "李震淮",
        "區域別": "苗栗市",
        "地址": "苗栗市新東街115巷2號",
        "電話": "037-325720",
        "收容對象": "養護",
        "核定收容人數": "164",
        "立案日期": "79.11",
        "Latitude": "24.5519219",
        "Longitude": "120.820669"
    },
    {
        "編號": "2",
        "屬性": "私立",
        "機構名稱": "苗栗縣私立大安居老人長期照顧中心(養護型)",
        "負責人": "蘇櫻華",
        "區域別": "苗栗市",
        "地址": "苗栗市上苗里14鄰建民街60號5樓",
        "電話": "037-268618",
        "收容對象": "養護",
        "核定收容人數": "48(含插2管10床)",
        "立案日期": "97.5",
        "Latitude": "24.5659256",
        "Longitude": "120.8238242"
    },
    {
        "編號": "3",
        "屬性": "公設民營",
        "機構名稱": "苗栗縣社區老人安養護中心(戊山園)",
        "負責人": "張漢昌",
        "區域別": "苗栗市",
        "地址": "苗栗市南勢里8鄰新勝7之1號",
        "電話": "037-330022",
        "收容對象": "安養",
        "核定收容人數": "7",
        "立案日期": "87.5",
        "Latitude": "24.5275405",
        "Longitude": "120.7980184"
    },
    {
        "編號": "3",
        "屬性": "公設民營",
        "機構名稱": "苗栗縣社區老人安養護中心(戊山園)",
        "負責人": "張漢昌",
        "區域別": "苗栗市",
        "地址": "苗栗市南勢里8鄰新勝7之1號",
        "電話": "037-330022",
        "收容對象": "養護",
        "核定收容人數": "93",
        "立案日期": "87.5",
        "Latitude": "24.5275405",
        "Longitude": "120.7980184"
    },
    {
        "編號": "4",
        "屬性": "私立",
        "機構名稱": "財團法人苗栗縣私立海青老人養護中心",
        "負責人": "張漢昌",
        "區域別": "通霄鎮",
        "地址": "通宵鎮坪頂里15鄰坪頂142-5號",
        "電話": "037-783409",
        "收容對象": "養護",
        "核定收容人數": "150(含插2管72床)",
        "立案日期": "96.1",
        "Latitude": "24.4530283",
        "Longitude": "120.7089749"
    },
    {
        "編號": "5",
        "屬性": "公設民營",
        "機構名稱": "苗栗縣苑裡社區老人養護中心",
        "負責人": "張漢昌",
        "區域別": "苑裡鎮",
        "地址": "苑裡鎮石鎮里5鄰石鎮34之5號",
        "電話": "037-743433",
        "收容對象": "養護",
        "核定收容人數": "108",
        "立案日期": "92.9",
        "Latitude": "24.401411",
        "Longitude": "120.715547"
    },
    {
        "編號": "6",
        "屬性": "私立",
        "機構名稱": "苗栗縣私立聖亞社區養護中心",
        "負責人": "余桂香",
        "區域別": "頭份鎮",
        "地址": "頭份鎮蟠桃里6鄰大勇街66號",
        "電話": "037-691624",
        "收容對象": "養護",
        "核定收容人數": "49(含插2管24床)",
        "立案日期": "88.1",
        "Latitude": "24.6949807",
        "Longitude": "120.9016958"
    },
    {
        "編號": "7",
        "屬性": "私立",
        "機構名稱": "苗栗縣私立頭份老人養護中心",
        "負責人": "鍾采錡",
        "區域別": "頭份鎮",
        "地址": "頭份鎮蟠桃里六鄰建國路2段271號",
        "電話": "037-596376",
        "收容對象": "養護",
        "核定收容人數": "49(含插2管24床)",
        "立案日期": "89.8",
        "Latitude": "24.694673",
        "Longitude": "120.901166"
    },
    {
        "編號": "8",
        "屬性": "私立",
        "機構名稱": "苗栗縣私立聖庭老人長期照顧中心(養護型)",
        "負責人": "余桂香",
        "區域別": "頭份鎮",
        "地址": "頭份鎮上興里6鄰吉祥路262號",
        "電話": "037-685608",
        "收容對象": "長照",
        "核定收容人數": "31",
        "立案日期": "97.12",
        "Latitude": "24.6760734",
        "Longitude": "120.92051"
    },
    {
        "編號": "8",
        "屬性": "私立",
        "機構名稱": "苗栗縣私立聖庭老人長期照顧中心(養護型)",
        "負責人": "余桂香",
        "區域別": "頭份鎮",
        "地址": "頭份鎮上興里6鄰吉祥路262號",
        "電話": "037-685608",
        "收容對象": "養護",
        "核定收容人數": "18",
        "立案日期": "97.12",
        "Latitude": "24.6760734",
        "Longitude": "120.92051"
    },
    {
        "編號": "9",
        "屬性": "私立",
        "機構名稱": "苗栗縣私立誠意老人長期照顧中心(養護型)",
        "負責人": "黃瓊玉",
        "區域別": "頭份鎮",
        "地址": "頭份鎮後庄里7鄰中央路921號",
        "電話": "037-633220",
        "收容對象": "養護",
        "核定收容人數": "49(含插2管15床)",
        "立案日期": "98.8",
        "Latitude": "24.693774",
        "Longitude": "120.886116"
    },
    {
        "編號": "10",
        "屬性": "私立",
        "機構名稱": "苗栗縣私立清暉老人養護中心",
        "負責人": "鍾金豪",
        "區域別": "南庄鄉",
        "地址": "南庄鄉員林村15鄰屯營63之1號",
        "電話": "037-831588",
        "收容對象": "養護",
        "核定收容人數": "48(含插2管20床)",
        "立案日期": "91.8",
        "Latitude": "24.634632",
        "Longitude": "120.960975"
    },
    {
        "編號": "11",
        "屬性": "私立",
        "機構名稱": "苗栗縣私立美麗家園老人長期照顧中心(養護型)",
        "負責人": "李君偉",
        "區域別": "竹南鎮",
        "地址": "竹南鎮營盤里14鄰環市路3段69號1-6樓",
        "電話": "037-480588",
        "收容對象": "養護",
        "核定收容人數": "37(含插2管18床)",
        "立案日期": "96.1",
        "Latitude": "24.6881947",
        "Longitude": "120.8700894"
    },
    {
        "編號": "11",
        "屬性": "私立",
        "機構名稱": "苗栗縣私立美麗家園老人長期照顧中心(養護型)",
        "負責人": "李君偉",
        "區域別": "竹南鎮",
        "地址": "竹南鎮營盤里14鄰環市路3段69號1-6樓",
        "電話": "037-480588",
        "收容對象": "長照",
        "核定收容人數": "12",
        "立案日期": "96.1",
        "Latitude": "24.6881947",
        "Longitude": "120.8700894"
    },
    {
        "編號": "12",
        "屬性": "私立",
        "機構名稱": "苗栗縣私立慈愛老人長期照顧中心(養護型)",
        "負責人": "陳林二妹",
        "區域別": "頭份鎮",
        "地址": "頭份鎮民生里11鄰銀河南路195號",
        "電話": "037-590151",
        "收容對象": "養護",
        "核定收容人數": "48(含插2管18床)",
        "立案日期": "100.8",
        "Latitude": "24.6777906",
        "Longitude": "120.9004552"
    },
    {
        "編號": "13",
        "屬性": "私立",
        "機構名稱": "苗栗縣私立杏安老人長期照顧中心(長照型)",
        "負責人": "傅柏文",
        "區域別": "竹南鎮",
        "地址": "竹南鎮崎頂里3鄰天祥街2段327號",
        "電話": "037-478292",
        "收容對象": "長照",
        "核定收容人數": "49",
        "立案日期": "100.11",
        "Latitude": "24.7136432",
        "Longitude": "120.8665746"
    },
    {
        "編號": "14",
        "屬性": "私立",
        "機構名稱": "苗栗縣私立邦群老人長期照顧中心(養護型)",
        "負責人": "林懋甫",
        "區域別": "頭份鎮",
        "地址": "頭份鎮蟠桃里大勇街61號2樓",
        "電話": "037-596376",
        "收容對象": "養護",
        "核定收容人數": "49",
        "立案日期": "102.11",
        "Latitude": "24.6949456",
        "Longitude": "120.9016651"
    },
    {
        "編號": "15",
        "屬性": "私立",
        "機構名稱": "苗栗縣私立振群老人長期照顧中心(養護型)",
        "負責人": "鍾采錡",
        "區域別": "頭份鎮",
        "地址": "頭份鎮蟠桃里大勇街61號3樓",
        "電話": "037-596376",
        "收容對象": "養護",
        "核定收容人數": "49",
        "立案日期": "102.11",
        "Latitude": "24.6949456",
        "Longitude": "120.9016651"
    }
]