[
    {
        "ins_id": "60000150",
        "ins_type": "私立",
        "ins_name": "嘉義市私立梅香園老人長期照顧中心",
        "agent": "郭皇村",
        "phone": "05-2741717",
        "capacity": "長照",
        "num_bed": "15",
        "city": "嘉義市",
        "area": "東區",
        "address": "嘉義市東區後庄里2鄰林森東路877號",
        "latitude": 23.4915594,
        "longitude": 120.469728
    },
    {
        "ins_id": "60000140",
        "ins_type": "私立",
        "ins_name": "嘉義市私立金蓮園老人長期照顧中心",
        "agent": "郭美君",
        "phone": "05-2741616",
        "capacity": "養護",
        "num_bed": "49(含插2管15床)",
        "city": "嘉義市",
        "area": "東區",
        "address": "嘉義市東區後庄里2鄰林森東路875號",
        "latitude": 23.4915594,
        "longitude": 120.469728
    },
    {
        "ins_id": "60000110",
        "ins_type": "私立",
        "ins_name": "嘉義市私立宏仁老人養護中心",
        "agent": "蕭亦夫",
        "phone": "05-2318756",
        "capacity": "養護",
        "num_bed": "41(含插2管15床)",
        "city": "嘉義市",
        "area": "東區",
        "address": "嘉義市東區荖藤里3鄰荖藤宅28之1號",
        "latitude": 23.5083829,
        "longitude": 120.4450306
    },
    {
        "ins_id": "60000180",
        "ins_type": "私立",
        "ins_name": "嘉義市私立鴻海老人長期照顧中心",
        "agent": "趙羅慧淑",
        "phone": "05-2318518",
        "capacity": "長照",
        "num_bed": "12",
        "city": "嘉義市",
        "area": "東區",
        "address": "嘉義市東區荖藤里荖藤宅87號",
        "latitude": 23.5101154,
        "longitude": 120.4422606
    },
    {
        "ins_id": "60000060",
        "ins_type": "私立",
        "ins_name": "財團法人臺灣省私立嘉義博愛仁愛之家",
        "agent": "?振明",
        "phone": "05-2762306",
        "capacity": "養護",
        "num_bed": "200",
        "city": "嘉義市",
        "area": "東區",
        "address": "嘉義市東區太平里林森東路235號",
        "latitude": 23.4886066,
        "longitude": 120.4630368
    },
    {
        "ins_id": "60000030",
        "ins_type": "私立",
        "ins_name": "嘉義市私立誠泰老人長期照顧中心",
        "agent": "游啟揚",
        "phone": "05-2366317",
        "capacity": "養護",
        "num_bed": "49(含插2管15床)",
        "city": "嘉義市",
        "area": "西區",
        "address": "嘉義市西區劉厝里16鄰大賢路148號",
        "latitude": 23.4626838,
        "longitude": 120.4146474
    },
    {
        "ins_id": "60000120",
        "ins_type": "私立",
        "ins_name": "嘉義市私立展順老人長期照護中心",
        "agent": "張咸宜",
        "phone": "05-2783023",
        "capacity": "長照",
        "num_bed": "40",
        "city": "嘉義市",
        "area": "東區",
        "address": "嘉義市東區頂庄里5鄰義教街585巷33號",
        "latitude": 23.4975369,
        "longitude": 120.4579607
    },
    {
        "ins_id": "60000180",
        "ins_type": "私立",
        "ins_name": "嘉義市私立鴻海老人長期照顧中心",
        "agent": "趙羅慧淑",
        "phone": "05-2318518",
        "capacity": "養護",
        "num_bed": "37(含插2管15床)",
        "city": "嘉義市",
        "area": "東區",
        "address": "嘉義市東區荖藤里荖藤宅87號",
        "latitude": 23.5101154,
        "longitude": 120.4422606
    },
    {
        "ins_id": "60000070",
        "ins_type": "私立",
        "ins_name": "財團法人臺灣省私立嘉義仁愛之家",
        "agent": "張南薰",
        "phone": "05-2250065",
        "capacity": "養護",
        "num_bed": "173(含2管養護86床)",
        "city": "嘉義市",
        "area": "東區",
        "address": "嘉義市東區芳草里草地尾8號",
        "latitude": 23.4669845,
        "longitude": 120.4639545
    },
    {
        "ins_id": "60000130",
        "ins_type": "私立",
        "ins_name": "嘉義市私立新仁友老人長期照護中心",
        "agent": "陳郁雯",
        "phone": "05-2786603",
        "capacity": "養護",
        "num_bed": "49(含插2管15床)",
        "city": "嘉義市",
        "area": "東區",
        "address": "嘉義市東區北門里7鄰民權路332巷38號",
        "latitude": 23.4842446,
        "longitude": 120.4645499
    },
    {
        "ins_id": "60000100",
        "ins_type": "私立",
        "ins_name": "嘉義市私立慈保老人養護中心",
        "agent": "賀守芬",
        "phone": "05-2769992",
        "capacity": "養護",
        "num_bed": "40(含插2管12床)",
        "city": "嘉義市",
        "area": "東區",
        "address": "嘉義市東區長竹里6鄰大雅路二段234巷8、10、12、14、16、18號",
        "latitude": 23.4786688,
        "longitude": 120.4771179
    },
    {
        "ins_id": "60000160",
        "ins_type": "私立",
        "ins_name": "財團法人嘉義市私立保康社會福利慈善事業基金會附設嘉義市私立保康老人長期照顧中心",
        "agent": "吳英賓",
        "phone": "05-2715565",
        "capacity": "失智",
        "num_bed": "18",
        "city": "嘉義市",
        "area": "東區",
        "address": "嘉義市東區後湖里17鄰保順路121號",
        "latitude": 23.5056477,
        "longitude": 120.45049
    },
    {
        "ins_id": "60000170",
        "ins_type": "私立",
        "ins_name": "嘉義市私立仁友老人長期照顧中心",
        "agent": "陳郁雯",
        "phone": "05-2786604",
        "capacity": "養護",
        "num_bed": "49(含插2管15床)",
        "city": "嘉義市",
        "area": "東區",
        "address": "嘉義市東區社口里1鄰文化路254-1號",
        "latitude": 23.481237,
        "longitude": 120.450371
    },
    {
        "ins_id": "60000160",
        "ins_type": "私立",
        "ins_name": "財團法人嘉義市私立保康社會福利慈善事業基金會附設嘉義市私立保康老人長期照顧中心",
        "agent": "吳英賓",
        "phone": "05-2715565",
        "capacity": "長照",
        "num_bed": "178",
        "city": "嘉義市",
        "area": "東區",
        "address": "嘉義市東區後湖里17鄰保順路121號",
        "latitude": 23.5056477,
        "longitude": 120.45049
    },
    {
        "ins_id": "60000020",
        "ins_type": "私立",
        "ins_name": "嘉義市私立國泰長期照護中心",
        "agent": "黃振南",
        "phone": "05-2861126",
        "capacity": "長照",
        "num_bed": "49",
        "city": "嘉義市",
        "area": "西區",
        "address": "嘉義市西區港坪里2鄰育人路329號",
        "latitude": 23.4726942,
        "longitude": 120.4133997
    },
    {
        "ins_id": "60000080",
        "ins_type": "私立",
        "ins_name": "財團法人臺灣省私立嘉義濟美仁愛之家",
        "agent": "陳錦煌",
        "phone": "05-2766130",
        "capacity": "安養",
        "num_bed": "89",
        "city": "嘉義市",
        "area": "東區",
        "address": "嘉義市東區圳頭里3鄰盧義路361號",
        "latitude": 23.4931184,
        "longitude": 120.4830536
    },
    {
        "ins_id": "60000060",
        "ins_type": "私立",
        "ins_name": "財團法人臺灣省私立嘉義博愛仁愛之家",
        "agent": "?振明",
        "phone": "05-2762306",
        "capacity": "安養",
        "num_bed": "56",
        "city": "嘉義市",
        "area": "東區",
        "address": "嘉義市東區太平里林森東路235號",
        "latitude": 23.4886066,
        "longitude": 120.4630368
    },
    {
        "ins_id": "60000040",
        "ins_type": "私立",
        "ins_name": "財團法人嘉義市私立瑞泰老人長期照護中心",
        "agent": "陳蔡美惠",
        "phone": "05-2352600",
        "capacity": "長照",
        "num_bed": "90",
        "city": "嘉義市",
        "area": "西區",
        "address": "嘉義市西區劉厝里15鄰玉山路669號",
        "latitude": 23.4685366,
        "longitude": 120.4144869
    },
    {
        "ins_id": "60000050",
        "ins_type": "私立",
        "ins_name": "嘉義市私立安心老人長期照顧中心",
        "agent": "胡景文",
        "phone": "05-2861654",
        "capacity": "長照",
        "num_bed": "46",
        "city": "嘉義市",
        "area": "西區",
        "address": "嘉義市西區湖內里25鄰南京路279號",
        "latitude": 23.4603572,
        "longitude": 120.4366387
    },
    {
        "ins_id": "60000010",
        "ins_type": "私立",
        "ins_name": "嘉義市私立博仁老人養護中心",
        "agent": "陳志仁",
        "phone": "05-2372088",
        "capacity": "養護",
        "num_bed": "49(含插2管24床)",
        "city": "嘉義市",
        "area": "西區",
        "address": "嘉義市西區保安里12鄰北社尾路49號",
        "latitude": 23.4917998,
        "longitude": 120.4284371
    },
    {
        "ins_id": "60000080",
        "ins_type": "私立",
        "ins_name": "財團法人臺灣省私立嘉義濟美仁愛之家",
        "agent": "陳錦煌",
        "phone": "05-2766130",
        "capacity": "養護",
        "num_bed": "108",
        "city": "嘉義市",
        "area": "東區",
        "address": "嘉義市東區圳頭里3鄰盧義路361號",
        "latitude": 23.4931184,
        "longitude": 120.4830536
    }
]