[
    {
        "ins_id": "40600180",
        "ins_type": "私立",
        "ins_name": "臺中市私立欣德老人長期照顧中心",
        "agent": "吳錦煽",
        "phone": "04-22316611",
        "capacity": "養護",
        "num_bed": "29(含插2管14床)",
        "city": "臺中市",
        "area": "北屯區",
        "address": "臺中市北屯區平德里青島路三段13號",
        "latitude": 24.168854,
        "longitude": 120.679426
    },
    {
        "ins_id": "40400230",
        "ins_type": "私立",
        "ins_name": "財團法人臺中市私立長生老人長期照護中心",
        "agent": "李從華",
        "phone": "04-22302033",
        "capacity": "長照",
        "num_bed": "91",
        "city": "臺中市",
        "area": "北區",
        "address": "臺中市北區錦祥里北屯路26號9、10、12樓(不含12樓之9及12樓之10)",
        "latitude": 24.1616147,
        "longitude": 120.6926564
    },
    {
        "ins_id": "41300660",
        "ins_type": "私立",
        "ins_name": "臺中市私立健民老人長期照顧中心",
        "agent": "黃至聖",
        "phone": "04-23328287",
        "capacity": "養護",
        "num_bed": "41(含插2管15床)",
        "city": "臺中市",
        "area": "霧峰區",
        "address": "臺中市霧峰區萬豐里中正路129號1樓",
        "latitude": 24.0223964,
        "longitude": 120.696342
    },
    {
        "ins_id": "40600160",
        "ins_type": "私立",
        "ins_name": "臺中市私立長生老人養護中心",
        "agent": "張良卿",
        "phone": "04-24226226",
        "capacity": "養護",
        "num_bed": "49(含插2管20床)",
        "city": "臺中市",
        "area": "北屯區",
        "address": "臺中市北屯區仁美里崇德路三段942號",
        "latitude": 24.2034251,
        "longitude": 120.6868352
    },
    {
        "ins_id": "42000640",
        "ins_type": "私立",
        "ins_name": "臺中市私立豐盛老人長期照顧中心",
        "agent": "許淑琴",
        "phone": "04-25122371",
        "capacity": "長照",
        "num_bed": "23",
        "city": "臺中市",
        "area": "豐原區",
        "address": "臺中市豐原區南陽里圓環東路241號",
        "latitude": 24.2437626,
        "longitude": 120.7219112
    },
    {
        "ins_id": "43700010",
        "ins_type": "私立",
        "ins_name": "財團法人臺灣省私立永信社會福利基金會附設臺中市私立松柏園老人養護中心",
        "agent": "李敏雄",
        "phone": "04-26760180",
        "capacity": "養護",
        "num_bed": "161(含插2管57床)",
        "city": "臺中市",
        "area": "大甲區",
        "address": "臺中市大甲區頂店里成功路319號",
        "latitude": 24.3601194,
        "longitude": 120.6481
    },
    {
        "ins_id": "41200050",
        "ins_type": "私立",
        "ins_name": "臺中市私立毓祥老人養護中心",
        "agent": "蕭陳淑貞",
        "phone": "04-24831380",
        "capacity": "養護",
        "num_bed": "33(含插2管16床)",
        "city": "臺中市",
        "area": "大里區",
        "address": "臺中市大里區大元里中興路二段73號",
        "latitude": 24.0976449,
        "longitude": 120.686651
    },
    {
        "ins_id": "42900550",
        "ins_type": "私立",
        "ins_name": "臺中市私立松群老人養護中心",
        "agent": "王衍三",
        "phone": "04-25625627",
        "capacity": "養護",
        "num_bed": "48(含插2管18床)",
        "city": "臺中市",
        "area": "神岡區",
        "address": "臺中市神岡區圳前里神圳路82號",
        "latitude": 24.266202,
        "longitude": 120.6589847
    },
    {
        "ins_id": "40100450",
        "ins_type": "私立",
        "ins_name": "臺中市私立敬馨老人長期照顧中心",
        "agent": "吳祐萱",
        "phone": "04-22116802",
        "capacity": "養護",
        "num_bed": "49(含插2管24床)",
        "city": "臺中市",
        "area": "東區",
        "address": "臺中市東區自由路三段314巷2號",
        "latitude": 24.142357,
        "longitude": 120.69519
    },
    {
        "ins_id": "40200500",
        "ins_type": "私立",
        "ins_name": "臺中市私立祥和老人養護中心",
        "agent": "黃芬輕",
        "phone": "04-22605999",
        "capacity": "養護",
        "num_bed": "45(含插2管13床)",
        "city": "臺中市",
        "area": "南區",
        "address": "臺中市南區樹義里大慶街一段242號",
        "latitude": 24.113971,
        "longitude": 120.655625
    },
    {
        "ins_id": "40700340",
        "ins_type": "私立",
        "ins_name": "臺中市私立長青老人養護中心",
        "agent": "賴景明",
        "phone": "04-23107959",
        "capacity": "養護",
        "num_bed": "47(含插2管23床)",
        "city": "臺中市",
        "area": "西屯區",
        "address": "臺中市西屯區何南里大墩20街116號、118號1樓",
        "latitude": 24.158529,
        "longitude": 120.651842
    },
    {
        "ins_id": "40800480",
        "ins_type": "私立",
        "ins_name": "臺中市私立葳采老人長期照顧中心",
        "agent": "黃馨慧",
        "phone": "04-23807788",
        "capacity": "養護",
        "num_bed": "43(含插2管21床)",
        "city": "臺中市",
        "area": "南屯區",
        "address": "臺中市南屯區永春南路188巷71號",
        "latitude": 24.1383143,
        "longitude": 120.6113579
    },
    {
        "ins_id": "43500570",
        "ins_type": "私立",
        "ins_name": "臺中市私立育沛老人長期照顧中心",
        "agent": "鄭杰立",
        "phone": "04-26392378",
        "capacity": "養護",
        "num_bed": "26(含插2管13床)",
        "city": "臺中市",
        "area": "梧棲區",
        "address": "臺中市梧棲區草湳里21鄰自強三街96巷8號",
        "latitude": 24.242839,
        "longitude": 120.5301524
    },
    {
        "ins_id": "40600180",
        "ins_type": "私立",
        "ins_name": "臺中市私立欣德老人長期照顧中心",
        "agent": "吳錦煽",
        "phone": "04-22316611",
        "capacity": "長照",
        "num_bed": "14",
        "city": "臺中市",
        "area": "北屯區",
        "address": "臺中市北屯區平德里青島路三段13號",
        "latitude": 24.168854,
        "longitude": 120.679426
    },
    {
        "ins_id": "40600130",
        "ins_type": "私立",
        "ins_name": "臺中市私立真善美老人養護中心",
        "agent": "陳志銘",
        "phone": "04-24363201 04-24369228",
        "capacity": "養護",
        "num_bed": "29(含插2管14床)",
        "city": "臺中市",
        "area": "北屯區",
        "address": "臺中市北屯區三和里東山路一段50巷63號",
        "latitude": 24.1669117,
        "longitude": 120.7020989
    },
    {
        "ins_id": "40700350",
        "ins_type": "私立",
        "ins_name": "臺中市私立安健老人養護中心",
        "agent": "童耀洲",
        "phone": "04-23119033",
        "capacity": "養護",
        "num_bed": "49(含插2管22床)",
        "city": "臺中市",
        "area": "西屯區",
        "address": "臺中市西屯區何明里太原路一段25號",
        "latitude": 24.1591186,
        "longitude": 120.6583061
    },
    {
        "ins_id": "43800290",
        "ins_type": "私立",
        "ins_name": "臺中市私立常春老人養護中心",
        "agent": "蔡瑞玉",
        "phone": "04-26839990",
        "capacity": "養護",
        "num_bed": "45(含插2管15床)",
        "city": "臺中市",
        "area": "外埔區",
        "address": "臺中市外埔區三坎里三坎路72-3號",
        "latitude": 24.3192317,
        "longitude": 120.6382919
    },
    {
        "ins_id": "43700030",
        "ins_type": "私立",
        "ins_name": "臺中市私立永和老人長期照顧中心",
        "agent": "林富美",
        "phone": "04-26870788",
        "capacity": "養護",
        "num_bed": "48(含插2管24床)",
        "city": "臺中市",
        "area": "大甲區",
        "address": "臺中市大甲區文武里育英路128號",
        "latitude": 24.3525973,
        "longitude": 120.6245685
    },
    {
        "ins_id": "40200490",
        "ins_type": "私立",
        "ins_name": "財團法人臺中市私立永耕社會福利基金會附設臺中市私立永耕老人養護中心",
        "agent": "林喬美",
        "phone": "04-22611698",
        "capacity": "長照",
        "num_bed": "42",
        "city": "臺中市",
        "area": "南區",
        "address": "臺中市南區樹義里文心南路766、768、770號",
        "latitude": 24.1127004,
        "longitude": 120.6579743
    },
    {
        "ins_id": "40400270",
        "ins_type": "私立",
        "ins_name": "臺中市私立慈恩老人養護中心",
        "agent": "黃麗美",
        "phone": "04-22039778",
        "capacity": "養護",
        "num_bed": "48(含插2管10床)",
        "city": "臺中市",
        "area": "北區",
        "address": "臺中市北區賴村里健行路518巷15弄2號",
        "latitude": 24.1611297,
        "longitude": 120.6791177
    },
    {
        "ins_id": "40600150",
        "ins_type": "私立",
        "ins_name": "臺中市私立同心居老人養護中心",
        "agent": "陳龍飛",
        "phone": "04-24225880 04-24225958",
        "capacity": "養護",
        "num_bed": "49(含插2管15床)",
        "city": "臺中市",
        "area": "北屯區",
        "address": "臺中市北屯區仁和里崇德十路二段266號",
        "latitude": 24.1910731,
        "longitude": 120.6780336
    },
    {
        "ins_id": "40300370",
        "ins_type": "私立",
        "ins_name": "臺中市私立福祿貝老老人養護中心",
        "agent": "林威特",
        "phone": "04-22026788",
        "capacity": "養護",
        "num_bed": "46(含插2管23床)",
        "city": "臺中市",
        "area": "西區",
        "address": "臺中市西區後龍里梅川東路二段11號2~4樓",
        "latitude": 24.1503156,
        "longitude": 120.6718909
    },
    {
        "ins_id": "41400540",
        "ins_type": "私立",
        "ins_name": "臺中市私立泰安老人養護中心",
        "agent": "陳品安",
        "phone": "04-23380707",
        "capacity": "養護",
        "num_bed": "49",
        "city": "臺中市",
        "area": "烏日區",
        "address": "臺中市烏日區九德里中山路一段548號8、9樓",
        "latitude": 24.1069325,
        "longitude": 120.6348674
    },
    {
        "ins_id": "41200040",
        "ins_type": "私立",
        "ins_name": "臺中市私立大愛老人養護中心",
        "agent": "陳慧英",
        "phone": "04-24854188",
        "capacity": "養護",
        "num_bed": "45",
        "city": "臺中市",
        "area": "大里區",
        "address": "臺中市大里區勝利二路60號",
        "latitude": 24.100687,
        "longitude": 120.686716
    },
    {
        "ins_id": "42000650",
        "ins_type": "私立",
        "ins_name": "臺中市私立愛老郎老人長期照顧中心",
        "agent": "宋淑娟",
        "phone": "04-25293499",
        "capacity": "長照",
        "num_bed": "24",
        "city": "臺中市",
        "area": "豐原區",
        "address": "臺中市豐原區東湳里2鄰三豐路884巷69號",
        "latitude": 24.2755023,
        "longitude": 120.72608
    },
    {
        "ins_id": "43800280",
        "ins_type": "私立",
        "ins_name": "財團法人臺中市私立廣達社會福利慈善事業基金會附設臺中市私立廣達老人長期照顧中心",
        "agent": "陳瑞祥",
        "phone": "04-26836161",
        "capacity": "養護",
        "num_bed": "200(含插2管75床)",
        "city": "臺中市",
        "area": "外埔區",
        "address": "臺中市外埔區月眉西路398巷100號",
        "latitude": 24.3376154,
        "longitude": 120.67262
    },
    {
        "ins_id": "40100430",
        "ins_type": "私立",
        "ins_name": "臺中市私立惠群老人長期照顧中心",
        "agent": "劉桂芳",
        "phone": "04-22130557",
        "capacity": "養護",
        "num_bed": "47(含插2管23床)",
        "city": "臺中市",
        "area": "東區",
        "address": "臺中市東區干城里自由路三段276號5樓",
        "latitude": 24.1426698,
        "longitude": 120.6937633
    },
    {
        "ins_id": "42000630",
        "ins_type": "私立",
        "ins_name": "臺中市私立太夫老人養護中心",
        "agent": "唐滿生",
        "phone": "04-25232048",
        "capacity": "養護",
        "num_bed": "20(含插2管10床)",
        "city": "臺中市",
        "area": "豐原區",
        "address": "臺中市豐原區東湳里角潭路二段119巷22號",
        "latitude": 24.2715093,
        "longitude": 120.7293165
    },
    {
        "ins_id": "43700020",
        "ins_type": "私立",
        "ins_name": "臺中市私立大甲老人養護中心",
        "agent": "潘海濤",
        "phone": "04-26865058",
        "capacity": "養護",
        "num_bed": "22(含插2管11床)",
        "city": "臺中市",
        "area": "大甲區",
        "address": "臺中市大甲區順天里五福街59、61號1樓~3樓",
        "latitude": 24.3474361,
        "longitude": 120.6200044
    },
    {
        "ins_id": "40800470",
        "ins_type": "私立",
        "ins_name": "臺中市私立至善園老人養護中心",
        "agent": "黃信堯",
        "phone": "04-23852299",
        "capacity": "養護",
        "num_bed": "49(含插2管20床)",
        "city": "臺中市",
        "area": "南屯區",
        "address": "臺中市南屯區南屯里五福街205號",
        "latitude": 24.1396115,
        "longitude": 120.6372872
    },
    {
        "ins_id": "40000100",
        "ins_type": "私立",
        "ins_name": "臺中市私立溫興長期照顧中心",
        "agent": "賴興建",
        "phone": "04-22230938",
        "capacity": "養護",
        "num_bed": "15(含插2管7床)",
        "city": "臺中市",
        "area": "中區",
        "address": "中市中區雙十路一段19巷6號",
        "latitude": 24.141011,
        "longitude": 120.6850447
    },
    {
        "ins_id": "42100310",
        "ins_type": "私立",
        "ins_name": "臺中市私立桃太郎老人養護中心",
        "agent": "張邁轟",
        "phone": "04-25561811",
        "capacity": "養護",
        "num_bed": "46(含插2管23床)",
        "city": "臺中市",
        "area": "后里區",
        "address": "臺中市后里區墩南里南村路333巷42-36號3、4樓",
        "latitude": 24.2928202,
        "longitude": 120.7118647
    },
    {
        "ins_id": "43500560",
        "ins_type": "私立",
        "ins_name": "財團法人臺中市私立好耆老人長期照顧中心",
        "agent": "王志財",
        "phone": "04-26630197",
        "capacity": "長照",
        "num_bed": "82",
        "city": "臺中市",
        "area": "梧棲區",
        "address": "臺中市梧棲區星美路197、199號",
        "latitude": 24.2541449,
        "longitude": 120.5592287
    },
    {
        "ins_id": "43300410",
        "ins_type": "私立",
        "ins_name": "臺中市私立皇家老人養護中心",
        "agent": "吳  心",
        "phone": "04-26336666",
        "capacity": "養護",
        "num_bed": "40(含插2管20床)",
        "city": "臺中市",
        "area": "沙鹿區",
        "address": "臺中市沙鹿區埔子里正義路97巷30號",
        "latitude": 24.2067175,
        "longitude": 120.5704747
    },
    {
        "ins_id": "40600190",
        "ins_type": "私立",
        "ins_name": "臺中市私立永春老人長期照顧中心",
        "agent": "古錦瑜",
        "phone": "04-24368956",
        "capacity": "養護",
        "num_bed": "46(含插2管20床)",
        "city": "臺中市",
        "area": "北屯區",
        "address": "臺中市北屯區和平里東山路一段308號2樓",
        "latitude": 24.1758344,
        "longitude": 120.7211634
    },
    {
        "ins_id": "40600140",
        "ins_type": "私立",
        "ins_name": "臺中市私立惠恩老人養護中心",
        "agent": "張惠珍",
        "phone": "04-24223627",
        "capacity": "養護",
        "num_bed": "45(含插2管21床)",
        "city": "臺中市",
        "area": "北屯區",
        "address": "臺中市北屯區仁美里崇德路三段746巷90號",
        "latitude": 24.204792,
        "longitude": 120.6878796
    },
    {
        "ins_id": "42000610",
        "ins_type": "私立",
        "ins_name": "臺中市私立豐原長生老人養護中心",
        "agent": "張良卿",
        "phone": "04-25151111",
        "capacity": "養護",
        "num_bed": "49(含插2管20床)",
        "city": "臺中市",
        "area": "豐原區",
        "address": "臺中市豐原區南村里水源路407號",
        "latitude": 24.255212,
        "longitude": 120.733974
    },
    {
        "ins_id": "40600120",
        "ins_type": "公立",
        "ins_name": "臺中市立仁愛之家",
        "agent": "蘇淑貞",
        "phone": "04-22392074(蔡主任*1200)",
        "capacity": "安養",
        "num_bed": "100",
        "city": "臺中市",
        "area": "北屯區",
        "address": "臺中市北屯區軍功里軍功路二段490號",
        "latitude": 24.1840727,
        "longitude": 120.7200816
    },
    {
        "ins_id": "40400260",
        "ins_type": "私立",
        "ins_name": "臺中市私立信望愛老人養護中心",
        "agent": "王興源",
        "phone": "04-22031097 04-22057036",
        "capacity": "養護",
        "num_bed": "49(含插2管24床)",
        "city": "臺中市",
        "area": "北區",
        "address": "臺中市北區育德里美德街211號2樓~6樓",
        "latitude": 24.1581079,
        "longitude": 120.6790422
    },
    {
        "ins_id": "40400250",
        "ins_type": "私立",
        "ins_name": "臺中市私立永和老人養護中心",
        "agent": "陳其宏",
        "phone": "04-22030609",
        "capacity": "養護",
        "num_bed": "49(含插2管24床)",
        "city": "臺中市",
        "area": "北區",
        "address": "臺中市北區淡溝里西屯路一段250巷1號",
        "latitude": 24.1561089,
        "longitude": 120.668949
    },
    {
        "ins_id": "42300460",
        "ins_type": "私立",
        "ins_name": "財團法人基督教福音信義傳道會附設臺中市私立信義老人養護中心",
        "agent": "尤寶珍",
        "phone": "04-25888225",
        "capacity": "養護",
        "num_bed": "49(含插2管11床)",
        "city": "臺中市",
        "area": "東勢區",
        "address": "臺中市東勢區泰昌里東崎路五段425號",
        "latitude": 24.2513102,
        "longitude": 120.8320833
    },
    {
        "ins_id": "42000650",
        "ins_type": "私立",
        "ins_name": "臺中市私立愛老郎老人長期照顧中心",
        "agent": "宋淑娟",
        "phone": "04-25293499",
        "capacity": "養護",
        "num_bed": "25",
        "city": "臺中市",
        "area": "豐原區",
        "address": "臺中市豐原區東湳里2鄰三豐路884巷69號",
        "latitude": 24.2755023,
        "longitude": 120.72608
    },
    {
        "ins_id": "40000110",
        "ins_type": "私立",
        "ins_name": "臺中市私立麗安老人長期照顧中心",
        "agent": "張軒維",
        "phone": "04-22250345",
        "capacity": "養護",
        "num_bed": "32(含插2管15床)",
        "city": "臺中市",
        "area": "中區",
        "address": "臺中市中區成功路341號3、4樓",
        "latitude": 24.1452029,
        "longitude": 120.6777284
    },
    {
        "ins_id": "41200080",
        "ins_type": "私立",
        "ins_name": "財團法人臺灣省私立菩提仁愛之家",
        "agent": "簡金武",
        "phone": "04-24837148",
        "capacity": "養護",
        "num_bed": "297(含插2管56床)",
        "city": "臺中市",
        "area": "大里區",
        "address": "臺中市大里區西榮里1鄰中興路2段619號",
        "latitude": 24.1151615,
        "longitude": 120.6895075
    },
    {
        "ins_id": "42800090",
        "ins_type": "私立",
        "ins_name": "臺中市私立健德老人養護中心",
        "agent": "童鄭寶月",
        "phone": "04-25604290",
        "capacity": "長照",
        "num_bed": "6",
        "city": "臺中市",
        "area": "大雅區",
        "address": "臺中市大雅區六寶里光復路2-5號",
        "latitude": 24.2349438,
        "longitude": 120.6282659
    },
    {
        "ins_id": "40600170",
        "ins_type": "私立",
        "ins_name": "臺中市私立大德老人養護中心",
        "agent": "吳錦煽",
        "phone": "04-22930666 04-22989030",
        "capacity": "養護",
        "num_bed": "36(含插2管10床)",
        "city": "臺中市",
        "area": "北屯區",
        "address": "臺中市北屯區忠平里陳平一街36巷30號、32號",
        "latitude": 24.184269,
        "longitude": 120.6687295
    },
    {
        "ins_id": "40100440",
        "ins_type": "私立",
        "ins_name": "臺中市私立德康老人長期照顧中心",
        "agent": "林桂連",
        "phone": "04-22154179",
        "capacity": "養護",
        "num_bed": "49(含插2管24床)",
        "city": "臺中市",
        "area": "東區",
        "address": "臺中市東區東勢里玉皇街63號3~5樓",
        "latitude": 24.1473999,
        "longitude": 120.693661
    },
    {
        "ins_id": "41400530",
        "ins_type": "私立",
        "ins_name": "臺中市私立昇柏老人養護中心",
        "agent": "陳惠娟",
        "phone": "04-23381438",
        "capacity": "養護",
        "num_bed": "34(含插2管10床)",
        "city": "臺中市",
        "area": "烏日區",
        "address": "臺中市烏日區學田里一鄰學田路732號",
        "latitude": 24.1256711,
        "longitude": 120.6072654
    },
    {
        "ins_id": "40300380",
        "ins_type": "私立",
        "ins_name": "臺中市私立貝思特老人長期照顧中心",
        "agent": "林威特",
        "phone": "04-22026788",
        "capacity": "養護",
        "num_bed": "13(含插2管6床)",
        "city": "臺中市",
        "area": "西區",
        "address": "臺中市西區後龍里梅川東路二段11號5~6樓",
        "latitude": 24.1503156,
        "longitude": 120.6718909
    },
    {
        "ins_id": "42700580",
        "ins_type": "私立",
        "ins_name": "臺中市私立孝親園老人養護中心",
        "agent": "呂燦陽",
        "phone": "04-25345412",
        "capacity": "養護",
        "num_bed": "42(含插2管21床)",
        "city": "臺中市",
        "area": "潭子區",
        "address": "臺中市潭子區雅豐街197巷8號",
        "latitude": 24.2165069,
        "longitude": 120.6932051
    },
    {
        "ins_id": "42000600",
        "ins_type": "私立",
        "ins_name": "財團法人臺中市私立公老坪社會福利慈善事業基金會附設臺中市私立田園老人養護中心",
        "agent": "陸桂森",
        "phone": "04-25220123",
        "capacity": "養護",
        "num_bed": "200(含插2管25床)",
        "city": "臺中市",
        "area": "豐原區",
        "address": "臺中市豐原區南嵩里水源路坪頂巷8-7號",
        "latitude": 24.2613317,
        "longitude": 120.7578337
    },
    {
        "ins_id": "40300400",
        "ins_type": "私立",
        "ins_name": "臺中市私立長庚老人養護中心",
        "agent": "黃金梅",
        "phone": "04-23103586",
        "capacity": "養護",
        "num_bed": "40(含插2管20床)",
        "city": "臺中市",
        "area": "西區",
        "address": "臺中市西區忠誠里精誠路72號3、4樓",
        "latitude": 24.1567032,
        "longitude": 120.6570376
    },
    {
        "ins_id": "40300390",
        "ins_type": "私立",
        "ins_name": "臺中市私立大墩老人養護中心",
        "agent": "林秀蜜",
        "phone": "04-24735983 04-24716768",
        "capacity": "養護",
        "num_bed": "48(含插管15床)",
        "city": "臺中市",
        "area": "西區",
        "address": "臺中市西區公正里向上路一段451號3~6樓",
        "latitude": 24.1467212,
        "longitude": 120.6538528
    },
    {
        "ins_id": "41200060",
        "ins_type": "私立",
        "ins_name": "臺中市私立清心老人養護中心",
        "agent": "柯文華",
        "phone": "04-24864567",
        "capacity": "養護",
        "num_bed": "49(含插2管15床)",
        "city": "臺中市",
        "area": "大里區",
        "address": "臺中市大里區大元里內元路158號",
        "latitude": 24.0986155,
        "longitude": 120.689954
    },
    {
        "ins_id": "40700330",
        "ins_type": "私立",
        "ins_name": "臺中市私立玫園老人養護中心",
        "agent": "沈民慈",
        "phone": "04-24623902 04-24626799",
        "capacity": "養護",
        "num_bed": "49(含插2管12床)",
        "city": "臺中市",
        "area": "西屯區",
        "address": "臺中市西屯區林厝里福雅路465號",
        "latitude": 24.1974664,
        "longitude": 120.6252976
    },
    {
        "ins_id": "40700320",
        "ins_type": "私立",
        "ins_name": "臺中市私立杏林老人長期照顧中心",
        "agent": "黃信堯",
        "phone": "04-24618119",
        "capacity": "養護",
        "num_bed": "49(含插2管24床)",
        "city": "臺中市",
        "area": "西屯區",
        "address": "臺中市西屯區福雅里西屯路三段153-5號3樓~6樓",
        "latitude": 24.186485,
        "longitude": 120.621404
    },
    {
        "ins_id": "40000110",
        "ins_type": "私立",
        "ins_name": "臺中市私立麗安老人長期照顧中心",
        "agent": "張軒維",
        "phone": "04-22250345",
        "capacity": "長照",
        "num_bed": "16",
        "city": "臺中市",
        "area": "中區",
        "address": "臺中市中區成功路341號3、4樓",
        "latitude": 24.1452029,
        "longitude": 120.6777284
    },
    {
        "ins_id": "40200490",
        "ins_type": "私立",
        "ins_name": "財團法人臺中市私立永耕社會福利基金會附設臺中市私立永耕老人養護中心",
        "agent": "林喬美",
        "phone": "04-22611698",
        "capacity": "養護",
        "num_bed": "111",
        "city": "臺中市",
        "area": "南區",
        "address": "臺中市南區樹義里文心南路766、768、770號",
        "latitude": 24.1127004,
        "longitude": 120.6579743
    },
    {
        "ins_id": "43400590",
        "ins_type": "私立",
        "ins_name": "財團法人臺中市私立普濟社會福利慈善事業基金會附設臺中市私立普濟老人長期照顧中心",
        "agent": "吳惠群",
        "phone": "04-26522166",
        "capacity": "養護",
        "num_bed": "46(含插2管23床)",
        "city": "臺中市",
        "area": "龍井區",
        "address": "臺中市龍井區東海里遠東街209巷2號",
        "latitude": 24.1890373,
        "longitude": 120.5974559
    },
    {
        "ins_id": "40600220",
        "ins_type": "私立",
        "ins_name": "臺中市私立福欣老人長期照顧中心",
        "agent": "吳伊娟",
        "phone": "04-24376502",
        "capacity": "養護",
        "num_bed": "46床(含插2管23床)",
        "city": "臺中市",
        "area": "北屯區",
        "address": "臺中市北屯區東山路一段308號5樓",
        "latitude": 24.1758344,
        "longitude": 120.7211634
    },
    {
        "ins_id": "40600120",
        "ins_type": "公立",
        "ins_name": "臺中市立仁愛之家",
        "agent": "蘇淑貞",
        "phone": "04-22392074(蔡主任*1200)",
        "capacity": "養護",
        "num_bed": "400",
        "city": "臺中市",
        "area": "北屯區",
        "address": "臺中市北屯區軍功里軍功路二段490號",
        "latitude": 24.1840727,
        "longitude": 120.7200816
    },
    {
        "ins_id": "40200510",
        "ins_type": "私立",
        "ins_name": "臺中市私立仁和老人養護中心",
        "agent": "陳慧英",
        "phone": "04-22261857",
        "capacity": "養護",
        "num_bed": "40",
        "city": "臺中市",
        "area": "南區",
        "address": "臺中市南區長榮里愛國街55號2樓~5樓",
        "latitude": 24.1304739,
        "longitude": 120.676546
    },
    {
        "ins_id": "40400240",
        "ins_type": "私立",
        "ins_name": "財團法人臺中市順天宮輔順將軍廟附設私立輔順仁愛之家",
        "agent": "陳英郎",
        "phone": "04-22030602(李主任*100)",
        "capacity": "安養",
        "num_bed": "128",
        "city": "臺中市",
        "area": "北區",
        "address": "臺中市北區賴村里德化街362號",
        "latitude": 24.1617538,
        "longitude": 120.6801987
    },
    {
        "ins_id": "43300420",
        "ins_type": "私立",
        "ins_name": "臺中市私立康祥老人長期照顧中心",
        "agent": "張淑貞",
        "phone": "04-26367669",
        "capacity": "養護",
        "num_bed": "32(含插2管10床)",
        "city": "臺中市",
        "area": "沙鹿區",
        "address": "臺中市沙鹿區三鹿里保成六街90號",
        "latitude": 24.2114938,
        "longitude": 120.562586
    },
    {
        "ins_id": "42000620",
        "ins_type": "私立",
        "ins_name": "臺中市私立健安老人養護中心",
        "agent": "鍾彬翊",
        "phone": "04-25255777",
        "capacity": "養護",
        "num_bed": "49(含插2管22床)",
        "city": "臺中市",
        "area": "豐原區",
        "address": "臺中市豐原區南田里南田街41號",
        "latitude": 24.2596384,
        "longitude": 120.7369133
    },
    {
        "ins_id": "43800300",
        "ins_type": "私立",
        "ins_name": "臺中市私立安宜田園老人長期照顧中心",
        "agent": "施品華",
        "phone": "04-26838781",
        "capacity": "養護",
        "num_bed": "48(含插2管17床)",
        "city": "臺中市",
        "area": "外埔區",
        "address": "臺中市外埔區鐵山里長生路425號",
        "latitude": 24.3469914,
        "longitude": 120.6544346
    },
    {
        "ins_id": "40700360",
        "ins_type": "私立",
        "ins_name": "臺中市私立善心園老人長期照顧中心",
        "agent": "陳峨梅",
        "phone": "04-24635886",
        "capacity": "養護",
        "num_bed": "49(含插2管24床)",
        "city": "臺中市",
        "area": "西屯區",
        "address": "臺中市西屯區福雅路550號",
        "latitude": 24.199788,
        "longitude": 120.626734
    },
    {
        "ins_id": "40400240",
        "ins_type": "私立",
        "ins_name": "財團法人臺中市順天宮輔順將軍廟附設私立輔順仁愛之家",
        "agent": "陳英郎",
        "phone": "04-22030602(李主任*100)",
        "capacity": "養護",
        "num_bed": "42(含插2管20床)",
        "city": "臺中市",
        "area": "北區",
        "address": "臺中市北區賴村里德化街362號",
        "latitude": 24.1617538,
        "longitude": 120.6801987
    },
    {
        "ins_id": "41200070",
        "ins_type": "私立",
        "ins_name": "臺中市私立全家老人養護中心",
        "agent": "廖明琳",
        "phone": "04-24180505",
        "capacity": "養護",
        "num_bed": "49(含插2管24床)",
        "city": "臺中市",
        "area": "大里區",
        "address": "臺中市大里區大元里東里路77號1、2樓",
        "latitude": 24.0957549,
        "longitude": 120.6796205
    },
    {
        "ins_id": "40600200",
        "ins_type": "私立",
        "ins_name": "臺中市私立永安老人長期照顧中心",
        "agent": "賴玉娟",
        "phone": "04-22389266",
        "capacity": "養護",
        "num_bed": "47(含插2管23床)",
        "city": "臺中市",
        "area": "北屯區",
        "address": "臺中市北屯區北平路四段199號",
        "latitude": 24.1698195,
        "longitude": 120.6966559
    },
    {
        "ins_id": "41400520",
        "ins_type": "私立",
        "ins_name": "臺中市私立享壽老人長期照顧中心",
        "agent": "蘇俊忠",
        "phone": "04-23385355",
        "capacity": "養護",
        "num_bed": "49(含插2管24床)",
        "city": "臺中市",
        "area": "烏日區",
        "address": "臺中市烏日區麻園東街76號",
        "latitude": 24.1048985,
        "longitude": 120.6332125
    },
    {
        "ins_id": "42800090",
        "ins_type": "私立",
        "ins_name": "臺中市私立健德老人養護中心",
        "agent": "童鄭寶月",
        "phone": "04-25604290",
        "capacity": "養護",
        "num_bed": "43(含插2管10床)",
        "city": "臺中市",
        "area": "大雅區",
        "address": "臺中市大雅區六寶里光復路2-5號",
        "latitude": 24.2349438,
        "longitude": 120.6282659
    },
    {
        "ins_id": "40600210",
        "ins_type": "私立",
        "ins_name": "臺中市私立嘉民老人長期照顧中心",
        "agent": "張美紅",
        "phone": "04-24370892",
        "capacity": "養護",
        "num_bed": "48(含插2管24床)",
        "city": "臺中市",
        "area": "北屯區",
        "address": "臺中市北屯區環中東路二段255號3樓",
        "latitude": 24.177055,
        "longitude": 120.7211977
    },
    {
        "ins_id": "40300380",
        "ins_type": "私立",
        "ins_name": "臺中市私立貝思特老人長期照顧中心",
        "agent": "林威特",
        "phone": "04-22026788",
        "capacity": "長照",
        "num_bed": "13",
        "city": "臺中市",
        "area": "西區",
        "address": "臺中市西區後龍里梅川東路二段11號5~6樓",
        "latitude": 24.1503156,
        "longitude": 120.6718909
    }
]