[
    {
        "ins_id": "70100120",
        "ins_type": "私立",
        "ins_name": "臺南市私立平安老人養護中心",
        "agent": "林子晴",
        "phone": "06-2602050",
        "capacity": "養護",
        "num_bed": "49(含插2管15床)",
        "city": "臺南市",
        "area": "東區",
        "address": "臺南市東區崇明二十街23號",
        "latitude": 22.969321,
        "longitude": 120.2267458
    },
    {
        "ins_id": "71700980",
        "ins_type": "私立",
        "ins_name": "臺南市私立長祐老人長期照顧中心",
        "agent": "葉清溪",
        "phone": "06-2666425",
        "capacity": "養護",
        "num_bed": "49(含插2管22床)",
        "city": "臺南市",
        "area": "仁德區",
        "address": "臺南市仁德區中生里中洲129之15號",
        "latitude": 22.9055958,
        "longitude": 120.2494241
    },
    {
        "ins_id": "72500930",
        "ins_type": "私立",
        "ins_name": "臺南市私立喜園老人長期照顧中心",
        "agent": "陳江圻",
        "phone": "06-7941286",
        "capacity": "養護",
        "num_bed": "48(含插2管24床)",
        "city": "臺南市",
        "area": "將軍區",
        "address": "臺南市將軍區長榮里長榮66-11號",
        "latitude": 23.1941764,
        "longitude": 120.1576574
    },
    {
        "ins_id": "70100150",
        "ins_type": "私立",
        "ins_name": "臺南市私立有德老人長期照顧中心",
        "agent": "李榮妹",
        "phone": "06-3352768",
        "capacity": "養護",
        "num_bed": "48(含插2管12床)",
        "city": "臺南市",
        "area": "東區",
        "address": "臺南市東區6鄰自由路1段61號",
        "latitude": 22.9671683,
        "longitude": 120.2340053
    },
    {
        "ins_id": "70400300",
        "ins_type": "私立",
        "ins_name": "財團法人臺灣省私立臺南仁愛之家",
        "agent": "林壽宏",
        "phone": "06-2254670",
        "capacity": "安養",
        "num_bed": "91",
        "city": "臺南市",
        "area": "北區",
        "address": "臺南市北區公園路321巷8號",
        "latitude": 23.0042502,
        "longitude": 120.2095944
    },
    {
        "ins_id": "72200660",
        "ins_type": "私立",
        "ins_name": "臺南市私立宏祐老人養護之家",
        "agent": "吳玟儀",
        "phone": "06-7230265",
        "capacity": "養護",
        "num_bed": "49(含插2管15床)",
        "city": "臺南市",
        "area": "佳里區",
        "address": "臺南市佳里區海澄里番子寮45號之16",
        "latitude": 23.172076,
        "longitude": 120.167666
    },
    {
        "ins_id": "71200740",
        "ins_type": "私立",
        "ins_name": "財團法人臺灣省臺南市臺灣首廟天壇附設臺南市私立天壇老人養護中心",
        "agent": "莊炯垣",
        "phone": "06-5800111",
        "capacity": "養護",
        "num_bed": "250(含插2管100床)",
        "city": "臺南市",
        "area": "新化區",
        "address": "臺南市新化區知義里新和庄22號",
        "latitude": 23.0237796,
        "longitude": 120.3135021
    },
    {
        "ins_id": "70800380",
        "ins_type": "私立",
        "ins_name": "財團法人臺南市私立吾愛吾家養護中心",
        "agent": "徐富強",
        "phone": "06-2952763",
        "capacity": "養護",
        "num_bed": "68(含插2管20床)",
        "city": "臺南市",
        "area": "安平區",
        "address": "臺南市安平區永華12街27巷10號",
        "latitude": 22.9919406,
        "longitude": 120.1584969
    },
    {
        "ins_id": "71200720",
        "ins_type": "私立",
        "ins_name": "臺南市私立松柏養護之家",
        "agent": "陳瑞惠",
        "phone": "06-5980662",
        "capacity": "養護",
        "num_bed": "48(含插2管24床)",
        "city": "臺南市",
        "area": "新化區",
        "address": "臺南市新化區全興里竹子腳136之1號",
        "latitude": 23.03338,
        "longitude": 120.2905
    },
    {
        "ins_id": "73300820",
        "ins_type": "私立",
        "ins_name": "臺南市私立廣恩老人養護中心",
        "agent": "吳劼?",
        "phone": "06-6801785",
        "capacity": "養護",
        "num_bed": "49(含插2管15床)",
        "city": "臺南市",
        "area": "東山區",
        "address": "臺南市東山區三榮里木柵60號之1",
        "latitude": 23.3180701,
        "longitude": 120.3899619
    },
    {
        "ins_id": "71001140",
        "ins_type": "私立",
        "ins_name": "臺南市私立宜仁老人長期照顧中心",
        "agent": "杜曉螢",
        "phone": "06-2019321",
        "capacity": "養護",
        "num_bed": "45(含插2管15床)",
        "city": "臺南市",
        "area": "永康區",
        "address": "永康區中山北路385巷3弄4號",
        "latitude": 23.0296415,
        "longitude": 120.2671773
    },
    {
        "ins_id": "72600760",
        "ins_type": "私立",
        "ins_name": "臺南市私立健樂老人長期照顧中心",
        "agent": "吳政哲",
        "phone": "06-7830536",
        "capacity": "養護",
        "num_bed": "49(含插2管24床)",
        "city": "臺南市",
        "area": "學甲區",
        "address": "臺南市學甲區美和里美和路4之51號",
        "latitude": 23.2241247,
        "longitude": 120.1979465
    },
    {
        "ins_id": "70400310",
        "ins_type": "私立",
        "ins_name": "臺南市私立慈愛老人養護中心",
        "agent": "鐘文郁",
        "phone": "06-2088818",
        "capacity": "養護",
        "num_bed": "49(含插2管23床)",
        "city": "臺南市",
        "area": "北區",
        "address": "臺南市北區北園街89號3樓",
        "latitude": 23.0112414,
        "longitude": 120.2224925
    },
    {
        "ins_id": "70200180",
        "ins_type": "私立",
        "ins_name": "臺南市私立福康老人長期照顧中心",
        "agent": "陳念彤",
        "phone": "06-2908005",
        "capacity": "養護",
        "num_bed": "21(含插2管9床)",
        "city": "臺南市",
        "area": "南區",
        "address": "臺南市南區大同路2段640巷35弄3、5號",
        "latitude": 22.9687638,
        "longitude": 120.2120861
    },
    {
        "ins_id": "71200730",
        "ins_type": "私立",
        "ins_name": "財團法人臺南市私立佛教觀音村社會福利慈善事業基金會附設臺南市私立觀音村老人養護靜修院",
        "agent": "呂美舒",
        "phone": "06-5912800",
        "capacity": "養護",
        "num_bed": "80(含插2管30床)",
        "city": "臺南市",
        "area": "新化區",
        "address": "臺南市新化區那拔里那拔林1-10號",
        "latitude": 23.065682,
        "longitude": 120.340884
    },
    {
        "ins_id": "70900440",
        "ins_type": "私立",
        "ins_name": "臺南市私立佳欣老人養護中心",
        "agent": "毛根發",
        "phone": "06-2872816",
        "capacity": "養護",
        "num_bed": "24(含插2管12床)",
        "city": "臺南市",
        "area": "安南區",
        "address": "臺南市安南區公學路4段54巷117號",
        "latitude": 23.0705663,
        "longitude": 120.1780549
    },
    {
        "ins_id": "72600790",
        "ins_type": "私立",
        "ins_name": "臺南市私立馨園老人長期照顧中心",
        "agent": "邱孟秋",
        "phone": "06-7834077",
        "capacity": "養護",
        "num_bed": "48(含插2管15床)",
        "city": "臺南市",
        "area": "學甲區",
        "address": "臺南市學甲區新生里中山路98號",
        "latitude": 23.2346019,
        "longitude": 120.181253
    },
    {
        "ins_id": "71101000",
        "ins_type": "私立",
        "ins_name": "臺南市私立媽廟老人養護院",
        "agent": "吳宗頂",
        "phone": "06-2719123",
        "capacity": "養護",
        "num_bed": "48(含插2管24床)",
        "city": "臺南市",
        "area": "歸仁區",
        "address": "臺南市歸仁區媽廟里和順路一段336巷16號",
        "latitude": 22.993306,
        "longitude": 120.292854
    },
    {
        "ins_id": "71001080",
        "ins_type": "私立",
        "ins_name": "臺南市私立維康老人養護中心",
        "agent": "方彩蓮",
        "phone": "06-3027655",
        "capacity": "養護",
        "num_bed": "39(含插2管15床)",
        "city": "臺南市",
        "area": "永康區",
        "address": "臺南市永康區大橋里大橋五街151號",
        "latitude": 23.022846,
        "longitude": 120.229099
    },
    {
        "ins_id": "72200640",
        "ins_type": "私立",
        "ins_name": "臺南市私立宏瑋養護院",
        "agent": "吳玟儀",
        "phone": "06-7230265",
        "capacity": "養護",
        "num_bed": "48(含插2管15床)",
        "city": "臺南市",
        "area": "佳里區",
        "address": "臺南市佳里區建南里四維二街223號",
        "latitude": 23.1490159,
        "longitude": 120.176587
    },
    {
        "ins_id": "70100080",
        "ins_type": "私立",
        "ins_name": "臺南市私立佑惠老人養護中心",
        "agent": "王清益",
        "phone": "06-2695457",
        "capacity": "養護",
        "num_bed": "21(含插2管10床)",
        "city": "臺南市",
        "area": "東區",
        "address": "臺南市東區自由路2段176號1-2樓",
        "latitude": 22.9733028,
        "longitude": 120.2367398
    },
    {
        "ins_id": "72000860",
        "ins_type": "公設民營",
        "ins_name": "臺南市官田老人養護中心",
        "agent": "黃碧恭",
        "phone": "06-5790749",
        "capacity": "養護",
        "num_bed": "152(含插2管60床)",
        "city": "臺南市",
        "area": "官田區",
        "address": "臺南市官田區隆本里中華路一段325號",
        "latitude": 23.1956995,
        "longitude": 120.3210503
    },
    {
        "ins_id": "71700940",
        "ins_type": "私立",
        "ins_name": "臺南市私立惠群老人長期照顧中心",
        "agent": "鄭雪慧",
        "phone": "06-2684356",
        "capacity": "養護",
        "num_bed": "31(含插2管15床)",
        "city": "臺南市",
        "area": "仁德區",
        "address": "臺南市仁德區成功里成功一街106號",
        "latitude": 22.9574361,
        "longitude": 120.2251606
    },
    {
        "ins_id": "70900450",
        "ins_type": "私立",
        "ins_name": "臺南市私立麗新老人養護中心",
        "agent": "毛根發",
        "phone": "06-2873078",
        "capacity": "養護",
        "num_bed": "31(含插2管15床)",
        "city": "臺南市",
        "area": "安南區",
        "address": "臺南市安南區公學路4段54巷90號",
        "latitude": 23.0703617,
        "longitude": 120.1781018
    },
    {
        "ins_id": "71001040",
        "ins_type": "私立",
        "ins_name": "臺南市私立保健老人長期照顧中心",
        "agent": "潘月娥",
        "phone": "06-2028884",
        "capacity": "養護",
        "num_bed": "31(含插2管15床)",
        "city": "臺南市",
        "area": "永康區",
        "address": "臺南市永康區五王里五福街19、21號",
        "latitude": 23.0126307,
        "longitude": 120.232242
    },
    {
        "ins_id": "70900460",
        "ins_type": "私立",
        "ins_name": "臺南市私立愛和老人長期照顧中心",
        "agent": "張靖明",
        "phone": "06-2562281",
        "capacity": "養護",
        "num_bed": "44(含插2管14床)",
        "city": "臺南市",
        "area": "安南區",
        "address": "臺南市安南區海佃路3段273號",
        "latitude": 23.0524758,
        "longitude": 120.179152
    },
    {
        "ins_id": "72300880",
        "ins_type": "私立",
        "ins_name": "臺南市私立藤澤養護之家",
        "agent": "劉立人",
        "phone": "06-7952180",
        "capacity": "養護",
        "num_bed": "40(含插2管15床)",
        "city": "臺南市",
        "area": "西港區",
        "address": "臺南市西港區劉厝里十三鄰劉厝110之3號",
        "latitude": 23.1294537,
        "longitude": 120.1767192
    },
    {
        "ins_id": "70900400",
        "ins_type": "公立",
        "ins_name": "臺南市立仁愛之家",
        "agent": "賴清德",
        "phone": "06-3554127",
        "capacity": "安養",
        "num_bed": "100",
        "city": "臺南市",
        "area": "安南區",
        "address": "臺南市安南區長和路2段36號",
        "latitude": 23.0642492,
        "longitude": 120.2200109
    },
    {
        "ins_id": "70000060",
        "ins_type": "私立",
        "ins_name": "財團法人臺南市私立林澄輝社會福利慈善事業基金會附設臺南市私立璐德老人長期照顧中心",
        "agent": "黃德成",
        "phone": "06-3588670",
        "capacity": "養護",
        "num_bed": "92(含插2管20床)",
        "city": "臺南市",
        "area": "中西區",
        "address": "臺南市中西區西和路100號",
        "latitude": 23.0004892,
        "longitude": 120.1891043
    },
    {
        "ins_id": "72200630",
        "ins_type": "私立",
        "ins_name": "臺南市私立公園老人長期照顧中心",
        "agent": "黃峻隆",
        "phone": "06-7212829",
        "capacity": "養護",
        "num_bed": "48(含插2管15床)",
        "city": "臺南市",
        "area": "佳里區",
        "address": "臺南市佳里區六安里佳北路165及165-1號",
        "latitude": 23.1706244,
        "longitude": 120.179042
    },
    {
        "ins_id": "70900510",
        "ins_type": "私立",
        "ins_name": "臺南市私立怡安老人長期照顧中心",
        "agent": "陳銘隆",
        "phone": "06-2566560",
        "capacity": "養護",
        "num_bed": "49(含插2管24床)",
        "city": "臺南市",
        "area": "安南區",
        "address": "臺南市安南區怡安路二段516巷86號1樓",
        "latitude": 23.0477816,
        "longitude": 120.1955491
    },
    {
        "ins_id": "70400360",
        "ins_type": "私立",
        "ins_name": "臺南市私立詮恩老人長期照顧中心",
        "agent": "陳世孝",
        "phone": "06-2520670",
        "capacity": "養護",
        "num_bed": "47(含插2管20床)",
        "city": "臺南市",
        "area": "北區",
        "address": "臺南市北區公園路952巷42號",
        "latitude": 23.0158717,
        "longitude": 120.2151338
    },
    {
        "ins_id": "73000530",
        "ins_type": "私立",
        "ins_name": "臺南市私立萬泰老人長期照顧中心",
        "agent": "張黃春來",
        "phone": "06-6330899",
        "capacity": "養護",
        "num_bed": "49(含插2管24床)",
        "city": "臺南市",
        "area": "新營區",
        "address": "臺南市新營區中營里東山中路55號",
        "latitude": 23.3141456,
        "longitude": 120.3335203
    },
    {
        "ins_id": "73000560",
        "ins_type": "私立",
        "ins_name": "臺南市私立泰安老人養護中心",
        "agent": "許漢松",
        "phone": "06-6352262",
        "capacity": "養護",
        "num_bed": "49(含插2管24床)",
        "city": "臺南市",
        "area": "新營區",
        "address": "臺南市新營區中營里東山三路69之1號",
        "latitude": 23.3140209,
        "longitude": 120.3308491
    },
    {
        "ins_id": "70200240",
        "ins_type": "私立",
        "ins_name": "臺南市私立長生老人養護中心",
        "agent": "涂新榮",
        "phone": "06-2916098",
        "capacity": "養護",
        "num_bed": "47(含插2管12床)",
        "city": "臺南市",
        "area": "南區",
        "address": "臺南市南區南功街36號",
        "latitude": 22.9833365,
        "longitude": 120.1856228
    },
    {
        "ins_id": "71001090",
        "ins_type": "私立",
        "ins_name": "臺南市私立和春老人長期照顧中心",
        "agent": "黃俊霖",
        "phone": "06-3025908",
        "capacity": "養護",
        "num_bed": "49(含插2管10床)",
        "city": "臺南市",
        "area": "永康區",
        "address": "臺南市永康區五王里振興路98號",
        "latitude": 23.0122643,
        "longitude": 120.2350089
    },
    {
        "ins_id": "70200170",
        "ins_type": "私立",
        "ins_name": "財團法人臺灣省私立臺南仁愛之家",
        "agent": "林壽宏",
        "phone": "06-2630431",
        "capacity": "養護",
        "num_bed": "139(含插2管28床)",
        "city": "臺南市",
        "area": "南區",
        "address": "臺南市南區新都路346號",
        "latitude": 22.9672707,
        "longitude": 120.1959386
    },
    {
        "ins_id": "70900480",
        "ins_type": "私立",
        "ins_name": "臺南市私立安和老人長期照顧中心",
        "agent": "楊憲政",
        "phone": "06-2558385",
        "capacity": "養護",
        "num_bed": "48(含插2管12床)",
        "city": "臺南市",
        "area": "安南區",
        "address": "臺南市安南區長和路4段283號",
        "latitude": 23.0654122,
        "longitude": 120.2051931
    },
    {
        "ins_id": "71001100",
        "ins_type": "私立",
        "ins_name": "財團法人高雄市私立寶光建德社會福利慈善事業基金會附設臺南市私立天心老人安養中心",
        "agent": "林再錦",
        "phone": "06-2314396",
        "capacity": "安養",
        "num_bed": "35",
        "city": "臺南市",
        "area": "永康區",
        "address": "臺南市永康區二王里中山南路510巷1之13號",
        "latitude": 23.0173937,
        "longitude": 120.2410073
    },
    {
        "ins_id": "71001050",
        "ins_type": "私立",
        "ins_name": "臺南市私立華恩養護之家",
        "agent": "杜政道",
        "phone": "06-2546565",
        "capacity": "養護",
        "num_bed": "16(含插2管8床)",
        "city": "臺南市",
        "area": "永康區",
        "address": "臺南市永康區尚頂里南臺街13巷45號十樓之一、二",
        "latitude": 23.02121,
        "longitude": 120.22243
    },
    {
        "ins_id": "70000020",
        "ins_type": "私立",
        "ins_name": "臺南市私立慈心老人養護中心",
        "agent": "黃秋源",
        "phone": "06-2586999",
        "capacity": "養護",
        "num_bed": "42(含插2管21床)",
        "city": "臺南市",
        "area": "中西區",
        "address": "臺南市中西區臨安路1段193號1-2樓",
        "latitude": 23.0009483,
        "longitude": 120.1926363
    },
    {
        "ins_id": "70000050",
        "ins_type": "私立",
        "ins_name": "財團法人臺南市基督教青年會社會福利慈善事業基金會附設臺南市私立臨安老人養護中心",
        "agent": "吳道昌",
        "phone": "06-3583000",
        "capacity": "養護",
        "num_bed": "68",
        "city": "臺南市",
        "area": "中西區",
        "address": "臺南市中西區民權路3段370號",
        "latitude": 22.998867,
        "longitude": 120.189521
    },
    {
        "ins_id": "70100130",
        "ins_type": "私立",
        "ins_name": "臺南市私立千慈老人養護中心",
        "agent": "黃國彰",
        "phone": "06-2906407",
        "capacity": "養護",
        "num_bed": "35(含插2管12床)",
        "city": "臺南市",
        "area": "東區",
        "address": "臺南市東區崇道路139號",
        "latitude": 22.9723733,
        "longitude": 120.2292057
    },
    {
        "ins_id": "70200230",
        "ins_type": "私立",
        "ins_name": "臺南市私立健康老人長期照顧中心",
        "agent": "王瑞源",
        "phone": "06-2614516",
        "capacity": "養護",
        "num_bed": "45(含插2管15床)",
        "city": "臺南市",
        "area": "南區",
        "address": "臺南市南區永南街20號",
        "latitude": 22.9826984,
        "longitude": 120.1887047
    },
    {
        "ins_id": "70800370",
        "ins_type": "公設民營",
        "ins_name": "臺南市政府社會局委託財團法人樹河社會福利基金會經營臺南市立悠然綠園安養暨長期照顧中心",
        "agent": "張忠嘉",
        "phone": "06-2957168",
        "capacity": "長照",
        "num_bed": "49",
        "city": "臺南市",
        "area": "安平區",
        "address": "臺南市安平區建平路2號",
        "latitude": 22.9830734,
        "longitude": 120.1815121
    },
    {
        "ins_id": "72200670",
        "ins_type": "私立",
        "ins_name": "臺南市私立宏丞老人養護之家",
        "agent": "吳玟儀",
        "phone": "06-7215800",
        "capacity": "長照",
        "num_bed": "10(長照床)",
        "city": "臺南市",
        "area": "佳里區",
        "address": "臺南市佳里區海澄里番子寮45號之15",
        "latitude": 23.172076,
        "longitude": 120.167666
    },
    {
        "ins_id": "70000030",
        "ins_type": "私立",
        "ins_name": "臺南市私立慈善老人養護中心",
        "agent": "李財教",
        "phone": "06-2994591",
        "capacity": "養護",
        "num_bed": "45(含插2管11床)",
        "city": "臺南市",
        "area": "中西區",
        "address": "臺南市中西區府前一街9巷12弄77、79號",
        "latitude": 22.9940097,
        "longitude": 120.1877041
    },
    {
        "ins_id": "70100140",
        "ins_type": "私立",
        "ins_name": "臺南市私立同德老人養護中心",
        "agent": "張玲琍",
        "phone": "06-2697970",
        "capacity": "養護",
        "num_bed": "48(含插2管24床)",
        "city": "臺南市",
        "area": "東區",
        "address": "臺南市東區崇德二十六街7號",
        "latitude": 22.9627001,
        "longitude": 120.228069
    },
    {
        "ins_id": "72200690",
        "ins_type": "私立",
        "ins_name": "臺南市私立康健老人長期照顧中心",
        "agent": "楊福美",
        "phone": "06-7222977、06-7223977",
        "capacity": "養護",
        "num_bed": "49(含插2管24床)",
        "city": "臺南市",
        "area": "佳里區",
        "address": "臺南市佳里區建南里佳南路797號",
        "latitude": 23.1485045,
        "longitude": 120.1735686
    },
    {
        "ins_id": "70400290",
        "ins_type": "私立",
        "ins_name": "財團法人臺灣省私立臺南仁愛之家",
        "agent": "林壽宏",
        "phone": "06-2252114",
        "capacity": "養護",
        "num_bed": "54",
        "city": "臺南市",
        "area": "北區",
        "address": "臺南市北區成功路238巷11號",
        "latitude": 23.0003878,
        "longitude": 120.2033902
    },
    {
        "ins_id": "71200700",
        "ins_type": "私立",
        "ins_name": "臺南市私立天寶老人長期照顧中心",
        "agent": "吳政霖",
        "phone": "06-5982336",
        "capacity": "養護",
        "num_bed": "49(含插2管24床)",
        "city": "臺南市",
        "area": "新化區",
        "address": "臺南市新化區唪口里唪口201號",
        "latitude": 23.042192,
        "longitude": 120.295142
    },
    {
        "ins_id": "72500920",
        "ins_type": "私立",
        "ins_name": "臺南市私立順園老人長期照顧中心",
        "agent": "黃華山",
        "phone": "06-7941286",
        "capacity": "養護",
        "num_bed": "48(含插2管24床)",
        "city": "臺南市",
        "area": "將軍區",
        "address": "臺南市將軍區長榮里長榮66-12號",
        "latitude": 23.1954227,
        "longitude": 120.1604302
    },
    {
        "ins_id": "70200250",
        "ins_type": "私立",
        "ins_name": "臺南市私立樂活屋老人長期照顧中心",
        "agent": "王曉嵐",
        "phone": "06-2640777",
        "capacity": "養護",
        "num_bed": "48(含插2管24床)",
        "city": "臺南市",
        "area": "南區",
        "address": "臺南市南區新興路173號",
        "latitude": 22.9779451,
        "longitude": 120.194845
    },
    {
        "ins_id": "73000550",
        "ins_type": "私立",
        "ins_name": "臺南市私立合信老人養護中心",
        "agent": "陳誼潔",
        "phone": "06-6572886",
        "capacity": "養護",
        "num_bed": "20(含插2管10床)",
        "city": "臺南市",
        "area": "新營區",
        "address": "臺南市新營區新南里明清街14號",
        "latitude": 23.3102503,
        "longitude": 120.2991385
    },
    {
        "ins_id": "73000520",
        "ins_type": "私立",
        "ins_name": "臺南市私立萬安老人長期照顧中心",
        "agent": "林伽蓉",
        "phone": "06-6330899",
        "capacity": "養護",
        "num_bed": "49(含插2管24床)",
        "city": "臺南市",
        "area": "新營區",
        "address": "臺南市新營區中營里東山中路57號",
        "latitude": 23.3141726,
        "longitude": 120.3335373
    },
    {
        "ins_id": "70900470",
        "ins_type": "私立",
        "ins_name": "臺南市私立長和老人長期照顧中心",
        "agent": "吳美蘭",
        "phone": "06-2552551",
        "capacity": "養護",
        "num_bed": "48(含插2管20床)",
        "city": "臺南市",
        "area": "安南區",
        "address": "臺南市安南區長和路4段285號",
        "latitude": 23.0653947,
        "longitude": 120.2050636
    },
    {
        "ins_id": "71700950",
        "ins_type": "私立",
        "ins_name": "臺南市私立慈安老人長期照顧中心",
        "agent": "賴慧君",
        "phone": "06-2905728",
        "capacity": "養護",
        "num_bed": "48(含插2管15床)",
        "city": "臺南市",
        "area": "仁德區",
        "address": "臺南市仁德區成功里成功二街200號",
        "latitude": 22.9558262,
        "longitude": 120.2286074
    },
    {
        "ins_id": "72300910",
        "ins_type": "私立",
        "ins_name": "臺南市私立為仁老人長期照顧中心",
        "agent": "楊淑雅",
        "phone": "06-7956402",
        "capacity": "養護",
        "num_bed": "30(含插2管15床)",
        "city": "臺南市",
        "area": "西港區",
        "address": "臺南市西港區慶安里中州89號",
        "latitude": 23.1213462,
        "longitude": 120.192332
    },
    {
        "ins_id": "70400330",
        "ins_type": "私立",
        "ins_name": "臺南市私立佳和老人長期照顧中心",
        "agent": "李旻峰",
        "phone": "06-2826727",
        "capacity": "養護",
        "num_bed": "47(含插2管23床)",
        "city": "臺南市",
        "area": "北區",
        "address": "臺南市北區北成路350號",
        "latitude": 23.0199604,
        "longitude": 120.203561
    },
    {
        "ins_id": "70200260",
        "ins_type": "私立",
        "ins_name": "臺南市私立惠慈老人長期照顧中心",
        "agent": "楊穎麟",
        "phone": "06-3368789",
        "capacity": "養護",
        "num_bed": "38(含插2管13床)",
        "city": "臺南市",
        "area": "南區",
        "address": "臺南市南區公英一街37巷35號、41號",
        "latitude": 22.9699519,
        "longitude": 120.2142484
    },
    {
        "ins_id": "70800370",
        "ins_type": "公設民營",
        "ins_name": "臺南市政府社會局委託財團法人樹河社會福利基金會經營臺南市立悠然綠園安養暨長期照顧中心",
        "agent": "張忠嘉",
        "phone": "06-2957168",
        "capacity": "失智",
        "num_bed": "24",
        "city": "臺南市",
        "area": "安平區",
        "address": "臺南市安平區建平路2號",
        "latitude": 22.9830734,
        "longitude": 120.1815121
    },
    {
        "ins_id": "70200280",
        "ins_type": "私立",
        "ins_name": "臺南市私立康得老人長期照顧中心",
        "agent": "黃裕仁",
        "phone": "06-2670027",
        "capacity": "養護",
        "num_bed": "19(含插2管9床)",
        "city": "臺南市",
        "area": "南區",
        "address": "臺南市南區公英一街37巷26號",
        "latitude": 22.9701289,
        "longitude": 120.2140451
    },
    {
        "ins_id": "71001130",
        "ins_type": "私立",
        "ins_name": "臺南市私立陽光老人長期照顧中心",
        "agent": "羅靜惠",
        "phone": "06-3029090",
        "capacity": "養護",
        "num_bed": "24(含插2管11床)",
        "city": "臺南市",
        "area": "永康區",
        "address": "永康區二王里47鄰中山東路25號1樓",
        "latitude": 23.0147017,
        "longitude": 120.235982
    },
    {
        "ins_id": "72100600",
        "ins_type": "私立",
        "ins_name": "財團法人臺灣省私立普門仁愛之家",
        "agent": "李壯源",
        "phone": "06-5722384",
        "capacity": "養護",
        "num_bed": "24",
        "city": "臺南市",
        "area": "麻豆區",
        "address": "臺南市麻豆區南勢里關帝廟23之15號",
        "latitude": 23.1915247,
        "longitude": 120.2587328
    },
    {
        "ins_id": "70000010",
        "ins_type": "私立",
        "ins_name": "臺南市私立祐健老人養護中心",
        "agent": "李明鎧",
        "phone": "06-2260303",
        "capacity": "養護",
        "num_bed": "28(含插2管10床)",
        "city": "臺南市",
        "area": "中西區",
        "address": "臺南市中西區開山路86號2樓、90號2、3樓",
        "latitude": 22.9899109,
        "longitude": 120.2067252
    },
    {
        "ins_id": "72600780",
        "ins_type": "私立",
        "ins_name": "臺南市私立學甲老人養護中心",
        "agent": "李王玉華",
        "phone": "06-7820353",
        "capacity": "養護",
        "num_bed": "49(含插2管15床)",
        "city": "臺南市",
        "area": "學甲區",
        "address": "臺南市學甲區秀昌里煥昌140-52號",
        "latitude": 23.2428939,
        "longitude": 120.1761629
    },
    {
        "ins_id": "72200680",
        "ins_type": "私立",
        "ins_name": "臺南市私立康泰老人長期照顧中心",
        "agent": "林守仁",
        "phone": "06-7222955",
        "capacity": "養護",
        "num_bed": "48(含插2管24床)",
        "city": "臺南市",
        "area": "佳里區",
        "address": "臺南市佳里區建南里佳南路799號",
        "latitude": 23.1485045,
        "longitude": 120.1735686
    },
    {
        "ins_id": "71700960",
        "ins_type": "私立",
        "ins_name": "臺南市私立迦南山莊老人長期照顧中心",
        "agent": "王文惠",
        "phone": "06-2884303",
        "capacity": "養護",
        "num_bed": "49(含插2管24床)",
        "city": "臺南市",
        "area": "仁德區",
        "address": "仁德區仁德里裕忠三街85號",
        "latitude": 22.9796531,
        "longitude": 120.240537
    },
    {
        "ins_id": "70900500",
        "ins_type": "私立",
        "ins_name": "臺南市私立裕康美老人長期照顧中心",
        "agent": "劉政德",
        "phone": "06-2571212",
        "capacity": "養護",
        "num_bed": "49(含插2管12床)",
        "city": "臺南市",
        "area": "安南區",
        "address": "臺南市安南區北汕尾三路536號",
        "latitude": 23.0575124,
        "longitude": 120.1417585
    },
    {
        "ins_id": "70100110",
        "ins_type": "私立",
        "ins_name": "臺南市私立中華老人養護中心",
        "agent": "張勝龍",
        "phone": "06-3356320",
        "capacity": "養護",
        "num_bed": "19",
        "city": "臺南市",
        "area": "東區",
        "address": "臺南市東區崇善路741號",
        "latitude": 22.9688158,
        "longitude": 120.2312155
    },
    {
        "ins_id": "70900490",
        "ins_type": "私立",
        "ins_name": "臺南市私立美麗園老人長期照顧中心",
        "agent": "陳志明",
        "phone": "06-2571212",
        "capacity": "養護",
        "num_bed": "48(含插2管12床)",
        "city": "臺南市",
        "area": "安南區",
        "address": "臺南市安南區北汕尾三路532號",
        "latitude": 23.0575734,
        "longitude": 120.1417935
    },
    {
        "ins_id": "73000540",
        "ins_type": "私立",
        "ins_name": "臺南市私立欣園老人長期照顧中心",
        "agent": "陳義龍",
        "phone": "06-6337830",
        "capacity": "養護",
        "num_bed": "48(含插2管24床)",
        "city": "臺南市",
        "area": "新營區",
        "address": "臺南市新營區大宏里綠川路8號",
        "latitude": 23.3107512,
        "longitude": 120.3242717
    },
    {
        "ins_id": "72300890",
        "ins_type": "私立",
        "ins_name": "臺南市私立春柏養護中心",
        "agent": "林榮春",
        "phone": "06-7955951",
        "capacity": "養護",
        "num_bed": "48(含插2管15床)",
        "city": "臺南市",
        "area": "西港區",
        "address": "臺南市西港區永樂里溪埔寮162號",
        "latitude": 23.09116,
        "longitude": 120.181084
    },
    {
        "ins_id": "73000590",
        "ins_type": "私立",
        "ins_name": "臺南市私立太子宮老人養護中心",
        "agent": "湯月美",
        "phone": "06-6525528",
        "capacity": "養護",
        "num_bed": "49(含插2管15床)",
        "city": "臺南市",
        "area": "新營區",
        "address": "臺南市新營區太南里太子宮316-10及316-11號",
        "latitude": 23.2848546,
        "longitude": 120.2751555
    },
    {
        "ins_id": "74100750",
        "ins_type": "私立",
        "ins_name": "臺南市私立安心養護之家",
        "agent": "楊瑞璋",
        "phone": "06-5835388",
        "capacity": "養護",
        "num_bed": "46(含插2管15床)",
        "city": "臺南市",
        "area": "善化區",
        "address": "臺南市善化區東昌里東勢寮1之17號",
        "latitude": 23.1469516,
        "longitude": 120.3297518
    },
    {
        "ins_id": "70800370",
        "ins_type": "公設民營",
        "ins_name": "臺南市政府社會局委託財團法人樹河社會福利基金會經營臺南市立悠然綠園安養暨長期照顧中心",
        "agent": "張忠嘉",
        "phone": "06-2957168",
        "capacity": "安養",
        "num_bed": "16",
        "city": "臺南市",
        "area": "安平區",
        "address": "臺南市安平區建平路2號",
        "latitude": 22.9830734,
        "longitude": 120.1815121
    },
    {
        "ins_id": "71200710",
        "ins_type": "私立",
        "ins_name": "臺南市私立新化養護之家",
        "agent": "?淑美",
        "phone": "06-5906959",
        "capacity": "養護",
        "num_bed": "49(含插2管15床)",
        "city": "臺南市",
        "area": "新化區",
        "address": "臺南市新化區護國里中山路32號",
        "latitude": 23.047409,
        "longitude": 120.317689
    },
    {
        "ins_id": "71001110",
        "ins_type": "私立",
        "ins_name": "臺南市私立康鈞老人長期照顧中心",
        "agent": "何鵬智",
        "phone": "06-2020816",
        "capacity": "養護",
        "num_bed": "48(含插2管23床)",
        "city": "臺南市",
        "area": "永康區",
        "address": "臺南市永康區二王里8鄰中山南路858號",
        "latitude": 23.0213988,
        "longitude": 120.2482706
    },
    {
        "ins_id": "70200270",
        "ins_type": "私立",
        "ins_name": "臺南市私立永佳老人長期照顧中心",
        "agent": "陳俐君",
        "phone": "06-2960052",
        "capacity": "養護",
        "num_bed": "24(含插2管10床)",
        "city": "臺南市",
        "area": "南區",
        "address": "臺南市南區永成路2段827巷25弄28號3樓",
        "latitude": 22.9602225,
        "longitude": 120.194531
    },
    {
        "ins_id": "70100160",
        "ins_type": "私立",
        "ins_name": "臺南市私立臻德老人長期照顧中心",
        "agent": "嚴智勇",
        "phone": "06-2696828",
        "capacity": "養護",
        "num_bed": "46(含插2管14床)",
        "city": "臺南市",
        "area": "東區",
        "address": "臺南市東區6鄰仁和路208巷27號",
        "latitude": 22.9679175,
        "longitude": 120.2342432
    },
    {
        "ins_id": "70200200",
        "ins_type": "私立",
        "ins_name": "財團法人臺灣省臺南市天主教仁愛修女會附設臺南市私立老吾老養護中心",
        "agent": "黃玲燕",
        "phone": "06-2643837",
        "capacity": "長照",
        "num_bed": "25",
        "city": "臺南市",
        "area": "南區",
        "address": "臺南市南區金華路1段530巷19號",
        "latitude": 22.974041,
        "longitude": 120.191777
    },
    {
        "ins_id": "70900410",
        "ins_type": "私立",
        "ins_name": "臺南市私立和豐園老人長期照顧中心",
        "agent": "楊憲宏",
        "phone": "06-2800959",
        "capacity": "養護",
        "num_bed": "48(含插2管24床)",
        "city": "臺南市",
        "area": "安南區",
        "address": "臺南市安南區國安街196號",
        "latitude": 23.0219316,
        "longitude": 120.1867903
    },
    {
        "ins_id": "70900430",
        "ins_type": "私立",
        "ins_name": "臺南市私立佑康老人長期照顧中心",
        "agent": "方彩蓮",
        "phone": "06-2569757",
        "capacity": "養護",
        "num_bed": "23(含插2管11床)",
        "city": "臺南市",
        "area": "安南區",
        "address": "臺南市安南區安通路4段119巷24號",
        "latitude": 23.030073,
        "longitude": 120.207164
    },
    {
        "ins_id": "73500840",
        "ins_type": "私立",
        "ins_name": "臺南市私立和平老人長期照顧中心",
        "agent": "黃建陵",
        "phone": "06-6898268",
        "capacity": "養護",
        "num_bed": "48(含插2管24床)",
        "city": "臺南市",
        "area": "下營區",
        "address": "臺南市下營區仁里里工業街2巷19號",
        "latitude": 23.2321499,
        "longitude": 120.2517443
    },
    {
        "ins_id": "71101010",
        "ins_type": "私立",
        "ins_name": "臺南市私立歸仁愛心養護中心",
        "agent": "王永祿",
        "phone": "06-2396618",
        "capacity": "養護",
        "num_bed": "48(含插2管20床)",
        "city": "臺南市",
        "area": "歸仁區",
        "address": "臺南市歸仁區七甲里中正北路2段417巷118號",
        "latitude": 22.987104,
        "longitude": 120.2907116
    },
    {
        "ins_id": "71001070",
        "ins_type": "私立",
        "ins_name": "臺南市私立永康慈善老人養護之家",
        "agent": "陳其榮",
        "phone": "06-2015439",
        "capacity": "養護",
        "num_bed": "44(含插2管20床)",
        "city": "臺南市",
        "area": "永康區",
        "address": "臺南市永康區龍潭里龍國街562號",
        "latitude": 23.0321251,
        "longitude": 120.270444
    },
    {
        "ins_id": "70800390",
        "ins_type": "私立",
        "ins_name": "臺南市私立馨心老人養護中心",
        "agent": "黃彥縉",
        "phone": "06-2507032",
        "capacity": "養護",
        "num_bed": "25(含插2管11床)",
        "city": "臺南市",
        "area": "安平區",
        "address": "臺南市安平區安平路162號",
        "latitude": 22.9984625,
        "longitude": 120.1822349
    },
    {
        "ins_id": "71801020",
        "ins_type": "私立",
        "ins_name": "財團法人樹河社會福利基金會附設臺灣省私立悠然山莊安養中心",
        "agent": "張忠嘉",
        "phone": "06-5954188",
        "capacity": "長照",
        "num_bed": "12",
        "city": "臺南市",
        "area": "關廟區",
        "address": "臺南市關廟區下湖里關新路一段85號",
        "latitude": 22.9936143,
        "longitude": 120.3087507
    },
    {
        "ins_id": "70200200",
        "ins_type": "私立",
        "ins_name": "財團法人臺灣省臺南市天主教仁愛修女會附設臺南市私立老吾老養護中心",
        "agent": "黃玲燕",
        "phone": "06-2643837",
        "capacity": "養護",
        "num_bed": "54(含插2管24床)",
        "city": "臺南市",
        "area": "南區",
        "address": "臺南市南區金華路1段530巷19號",
        "latitude": 22.974041,
        "longitude": 120.191777
    },
    {
        "ins_id": "72100620",
        "ins_type": "私立",
        "ins_name": "臺南市私立清心園老人長期照顧中心",
        "agent": "陳莉姝",
        "phone": "06-5700010",
        "capacity": "養護",
        "num_bed": "48(含插2管24床)",
        "city": "臺南市",
        "area": "麻豆區",
        "address": "臺南市麻豆區港尾里客子寮1-27號",
        "latitude": 23.212746,
        "longitude": 120.204655
    },
    {
        "ins_id": "70800370",
        "ins_type": "公設民營",
        "ins_name": "臺南市政府社會局委託財團法人樹河社會福利基金會經營臺南市立悠然綠園安養暨長期照顧中心",
        "agent": "張忠嘉",
        "phone": "06-2957168",
        "capacity": "養護",
        "num_bed": "111(含插2管55床)",
        "city": "臺南市",
        "area": "安平區",
        "address": "臺南市安平區建平路2號",
        "latitude": 22.9830734,
        "longitude": 120.1815121
    },
    {
        "ins_id": "70400340",
        "ins_type": "私立",
        "ins_name": "臺南市私立宜家老人長期照顧中心",
        "agent": "林佳陵",
        "phone": "06-2230861",
        "capacity": "養護",
        "num_bed": "44(含插2管15床)",
        "city": "臺南市",
        "area": "北區",
        "address": "臺南市北區成功路246號",
        "latitude": 22.999442,
        "longitude": 120.202839
    },
    {
        "ins_id": "72000850",
        "ins_type": "私立",
        "ins_name": "臺南市私立融園老人長期照顧中心",
        "agent": "陳多儷",
        "phone": "06-5793333",
        "capacity": "養護",
        "num_bed": "49(含插2管24床)",
        "city": "臺南市",
        "area": "官田區",
        "address": "臺南市官田區拔林里86之5號",
        "latitude": 23.1762899,
        "longitude": 120.3157143
    },
    {
        "ins_id": "70100090",
        "ins_type": "私立",
        "ins_name": "臺南市私立愛惠老人養護中心",
        "agent": "鄭美惠",
        "phone": "06-2684254",
        "capacity": "養護",
        "num_bed": "28(含插2管10床)",
        "city": "臺南市",
        "area": "東區",
        "address": "臺南市臺南市東區東門路2段236號",
        "latitude": 22.984591,
        "longitude": 120.2243688
    },
    {
        "ins_id": "73100800",
        "ins_type": "私立",
        "ins_name": "臺南市私立天和老人長期照顧中心",
        "agent": "郭雅惠",
        "phone": "06-6355553",
        "capacity": "養護",
        "num_bed": "48(含插2管12床)",
        "city": "臺南市",
        "area": "後壁區",
        "address": "臺南市後壁區頂安里290之2號",
        "latitude": 23.3443299,
        "longitude": 120.3529776
    },
    {
        "ins_id": "71700990",
        "ins_type": "私立",
        "ins_name": "臺南市私立仁田老人長期照顧中心",
        "agent": "田志鵬",
        "phone": "06-2797977",
        "capacity": "養護",
        "num_bed": "30(含插2管12床)",
        "city": "臺南市",
        "area": "仁德區",
        "address": "臺南市仁德區仁德里文華路三段460號",
        "latitude": 22.9717024,
        "longitude": 120.2436149
    },
    {
        "ins_id": "70200210",
        "ins_type": "私立",
        "ins_name": "臺南市私立國民老人長期照顧中心",
        "agent": "潘永良",
        "phone": "06-2891829",
        "capacity": "養護",
        "num_bed": "38(含插2管13床)",
        "city": "臺南市",
        "area": "南區",
        "address": "臺南市南區國民路60巷9號",
        "latitude": 22.9679115,
        "longitude": 120.2141992
    },
    {
        "ins_id": "70200220",
        "ins_type": "私立",
        "ins_name": "臺南市私立明興老人養護中心",
        "agent": "葉銀珠",
        "phone": "06-2622377",
        "capacity": "養護",
        "num_bed": "48(含插2管15床)",
        "city": "臺南市",
        "area": "南區",
        "address": "臺南市南區明興路320號2-3樓",
        "latitude": 22.9381986,
        "longitude": 120.1814414
    },
    {
        "ins_id": "73000570",
        "ins_type": "私立",
        "ins_name": "臺南市私立美安老人養護中心",
        "agent": "許漢松",
        "phone": "06-6352262",
        "capacity": "養護",
        "num_bed": "36(含插2管18床)",
        "city": "臺南市",
        "area": "新營區",
        "address": "臺南市新營區中營里東山三路69號",
        "latitude": 23.3140209,
        "longitude": 120.3308491
    },
    {
        "ins_id": "72200670",
        "ins_type": "私立",
        "ins_name": "臺南市私立宏丞老人養護之家",
        "agent": "吳玟儀",
        "phone": "06-7215800",
        "capacity": "養護",
        "num_bed": "36(養護床)",
        "city": "臺南市",
        "area": "佳里區",
        "address": "臺南市佳里區海澄里番子寮45號之15",
        "latitude": 23.172076,
        "longitude": 120.167666
    },
    {
        "ins_id": "72100610",
        "ins_type": "私立",
        "ins_name": "財團法人臺南市私立麻豆社會福利慈善事業基金會附設臺南市私立麻豆老人養護中心",
        "agent": "何慶輝",
        "phone": "06-5710979",
        "capacity": "養護",
        "num_bed": "200(含插2管66床)",
        "city": "臺南市",
        "area": "麻豆區",
        "address": "臺南市麻豆區中民里謝厝寮101號之35",
        "latitude": 23.1434815,
        "longitude": 120.2450784
    },
    {
        "ins_id": "71001030",
        "ins_type": "私立",
        "ins_name": "臺南市私立友廉養護中心",
        "agent": "楊瑞村",
        "phone": "06-2020707",
        "capacity": "養護",
        "num_bed": "32(含插2管12床)",
        "city": "臺南市",
        "area": "永康區",
        "address": "臺南市永康區六合里六合路55之1號",
        "latitude": 23.0100091,
        "longitude": 120.2307738
    },
    {
        "ins_id": "73300830",
        "ins_type": "私立",
        "ins_name": "臺南市私立大慶老人長期照顧中心",
        "agent": "羅龍居",
        "phone": "06-6804197",
        "capacity": "養護",
        "num_bed": "44(含插2管22床)",
        "city": "臺南市",
        "area": "東山區",
        "address": "臺南市東山區東中里12鄰育群街1號",
        "latitude": 23.3165816,
        "longitude": 120.4057265
    },
    {
        "ins_id": "72200650",
        "ins_type": "私立",
        "ins_name": "臺南市私立宏佳老人養護院",
        "agent": "吳玟儀",
        "phone": "06-7230265",
        "capacity": "養護",
        "num_bed": "39(含插2管15床)",
        "city": "臺南市",
        "area": "佳里區",
        "address": "臺南市佳里區建南里四維二街221號",
        "latitude": 23.1496055,
        "longitude": 120.1765689
    },
    {
        "ins_id": "70400320",
        "ins_type": "私立",
        "ins_name": "臺南市私立聖功老人養護中心",
        "agent": "邱孟秋",
        "phone": "06-2591081",
        "capacity": "養護",
        "num_bed": "40(含插2管20床)",
        "city": "臺南市",
        "area": "北區",
        "address": "臺南市北區文成路785號",
        "latitude": 23.0120222,
        "longitude": 120.1943014
    },
    {
        "ins_id": "70900420",
        "ins_type": "私立",
        "ins_name": "臺南市私立同安老人長期照顧中心",
        "agent": "謝東立",
        "phone": "06-2466618",
        "capacity": "養護",
        "num_bed": "48(含插2管15床)",
        "city": "臺南市",
        "area": "安南區",
        "address": "臺南市安南區同安路17巷18號",
        "latitude": 23.039838,
        "longitude": 120.1885665
    },
    {
        "ins_id": "72300900",
        "ins_type": "私立",
        "ins_name": "臺南市私立家園老人養護中心",
        "agent": "王順永",
        "phone": "06-7955282",
        "capacity": "養護",
        "num_bed": "49(含插2管24床)",
        "city": "臺南市",
        "area": "西港區",
        "address": "臺南市西港區慶安里中山路479號",
        "latitude": 23.1297147,
        "longitude": 120.2011545
    },
    {
        "ins_id": "71001120",
        "ins_type": "私立",
        "ins_name": "臺南市私立樺馨苑老人長期照顧中心",
        "agent": "羅忠仁",
        "phone": "06-2719998",
        "capacity": "養護",
        "num_bed": "47(含插2管23床)",
        "city": "臺南市",
        "area": "永康區",
        "address": "臺南市永康區網寮里大灣路942巷641弄75號1樓",
        "latitude": 23.013087,
        "longitude": 120.253916
    },
    {
        "ins_id": "70200190",
        "ins_type": "私立",
        "ins_name": "臺南市私立瑞園老人長期照顧中心",
        "agent": "葉銀珠",
        "phone": "06-2652911",
        "capacity": "養護",
        "num_bed": "48(含插2管24床)",
        "city": "臺南市",
        "area": "南區",
        "address": "臺南市南區三官路205號",
        "latitude": 22.9772079,
        "longitude": 120.1926311
    },
    {
        "ins_id": "70400350",
        "ins_type": "私立",
        "ins_name": "臺南市私立正覺老人長期照顧中心",
        "agent": "謝政達",
        "phone": "06-2525350",
        "capacity": "養護",
        "num_bed": "48(含插2管15床)",
        "city": "臺南市",
        "area": "北區",
        "address": "臺南市北區正覺街47號",
        "latitude": 23.0165262,
        "longitude": 120.2126435
    },
    {
        "ins_id": "73100810",
        "ins_type": "私立",
        "ins_name": "臺南市私立存德老人養護中心",
        "agent": "黃義田",
        "phone": "06-6623588",
        "capacity": "養護",
        "num_bed": "32(含插2管15床)",
        "city": "臺南市",
        "area": "後壁區",
        "address": "臺南市後壁區菁豐里1之4號",
        "latitude": 23.379478,
        "longitude": 120.355007
    },
    {
        "ins_id": "70100100",
        "ins_type": "私立",
        "ins_name": "臺南市私立崇善老人養護中心",
        "agent": "顏雅鈴",
        "phone": "06-3364911",
        "capacity": "養護",
        "num_bed": "45(含插2管15床)",
        "city": "臺南市",
        "area": "東區",
        "address": "臺南市東區崇善路1089巷57號",
        "latitude": 22.9648214,
        "longitude": 120.2358982
    },
    {
        "ins_id": "74200870",
        "ins_type": "私立",
        "ins_name": "臺南市私立康慈老人長期照顧中心",
        "agent": "蘇惠玲",
        "phone": "06-5761878",
        "capacity": "養護",
        "num_bed": "49(含插2管24床)",
        "city": "臺南市",
        "area": "大內區",
        "address": "臺南市大內區村 83-16 號",
        "latitude": 23.1234393,
        "longitude": 120.3546666
    },
    {
        "ins_id": "70000040",
        "ins_type": "私立",
        "ins_name": "臺南市私立慈恩老人長期照顧中心",
        "agent": "陳錦蓉",
        "phone": "06-2501843",
        "capacity": "養護",
        "num_bed": "49(含插2管24床)",
        "city": "臺南市",
        "area": "中西區",
        "address": "臺南市中西區臨安路1段193號3-4樓",
        "latitude": 23.0009483,
        "longitude": 120.1926363
    },
    {
        "ins_id": "71801020",
        "ins_type": "私立",
        "ins_name": "財團法人樹河社會福利基金會附設臺灣省私立悠然山莊安養中心",
        "agent": "張忠嘉",
        "phone": "06-5954188",
        "capacity": "養護",
        "num_bed": "78(含插2管29床)",
        "city": "臺南市",
        "area": "關廟區",
        "address": "臺南市關廟區下湖里關新路一段85號",
        "latitude": 22.9936143,
        "longitude": 120.3087507
    },
    {
        "ins_id": "71700970",
        "ins_type": "私立",
        "ins_name": "臺南市私立尚美老人養護中心",
        "agent": "吳求淳",
        "phone": "06-2496576",
        "capacity": "養護",
        "num_bed": "27(含插2管13床)",
        "city": "臺南市",
        "area": "仁德區",
        "address": "臺南市仁德區後壁里中正路2段187巷12號、16號",
        "latitude": 22.947385,
        "longitude": 120.250596
    },
    {
        "ins_id": "71801020",
        "ins_type": "私立",
        "ins_name": "財團法人樹河社會福利基金會附設臺灣省私立悠然山莊安養中心",
        "agent": "張忠嘉",
        "phone": "06-5954188",
        "capacity": "安養",
        "num_bed": "32",
        "city": "臺南市",
        "area": "關廟區",
        "address": "臺南市關廟區下湖里關新路一段85號",
        "latitude": 22.9936143,
        "longitude": 120.3087507
    },
    {
        "ins_id": "70100070",
        "ins_type": "私立",
        "ins_name": "臺南市私立長佳老人養護中心",
        "agent": "白金慧",
        "phone": "06-2676812",
        "capacity": "養護",
        "num_bed": "49(含插2管13床)",
        "city": "臺南市",
        "area": "東區",
        "address": "臺南市東區崇學路230巷59號2、3樓",
        "latitude": 22.9805867,
        "longitude": 120.2266763
    },
    {
        "ins_id": "71001060",
        "ins_type": "私立",
        "ins_name": "臺南市私立南臺養護中心",
        "agent": "李素?",
        "phone": "06-2425538",
        "capacity": "養護",
        "num_bed": "48(含插2管15床)",
        "city": "臺南市",
        "area": "永康區",
        "address": "臺南市永康區尚頂里南臺街65號",
        "latitude": 23.0223581,
        "longitude": 120.222143
    },
    {
        "ins_id": "71001100",
        "ins_type": "私立",
        "ins_name": "財團法人高雄市私立寶光建德社會福利慈善事業基金會附設臺南市私立天心老人安養中心",
        "agent": "林再錦",
        "phone": "06-2314396",
        "capacity": "養護",
        "num_bed": "16(含插2管8床)",
        "city": "臺南市",
        "area": "永康區",
        "address": "臺南市永康區二王里中山南路510巷1之13號",
        "latitude": 23.0173937,
        "longitude": 120.2410073
    },
    {
        "ins_id": "72600770",
        "ins_type": "私立",
        "ins_name": "臺南市私立樂健心?養護中心",
        "agent": "王海杉",
        "phone": "06-7830536",
        "capacity": "養護",
        "num_bed": "49(含插2管24床)",
        "city": "臺南市",
        "area": "學甲區",
        "address": "臺南市學甲區美和里4之53號",
        "latitude": 23.225918,
        "longitude": 120.201043
    },
    {
        "ins_id": "72100600",
        "ins_type": "私立",
        "ins_name": "財團法人臺灣省私立普門仁愛之家",
        "agent": "李壯源",
        "phone": "06-5722384",
        "capacity": "安養",
        "num_bed": "48",
        "city": "臺南市",
        "area": "麻豆區",
        "address": "臺南市麻豆區南勢里關帝廟23之15號",
        "latitude": 23.1915247,
        "longitude": 120.2587328
    },
    {
        "ins_id": "73000580",
        "ins_type": "私立",
        "ins_name": "臺南市私立新營老人長期照顧中心",
        "agent": "林志忠",
        "phone": "06-6581517",
        "capacity": "養護",
        "num_bed": "48(含插2管24床)",
        "city": "臺南市",
        "area": "新營區",
        "address": "臺南市新營區舊?里2之10號及2之11號",
        "latitude": 23.2792603,
        "longitude": 120.2872893
    }
]